Column1,업소명,도로명주소,위도,경도,기타,할인적용카드
0,기린로가정식백반,완산구 기린대로 222,35.8265367,127.1464347,대표품목 :백반<가격 :5500<영업시간 :11:30~18:30,착한가격업소
1,다래성,완산구 효동2길 18,35.8049493,127.1266096,대표품목 :짜장면<가격 :3000<영업시간 :09:00~20:00,착한가격업소
2,옛살비,완산구 노송여울2길 14-3,35.8245528,127.1463814,대표품목 :한식뷔페<가격 :7000<영업시간 :09:00~21:00,착한가격업소
3,동래분식,완산구 풍남문2길 39,35.8125984,127.147168,대표품목 :칼국수<가격 :4500<영업시간 :07:00~19:30,착한가격업소
4,만나별미,완산구 거마평로 122,35.8032676,127.1170026,대표품목 :돈가스<가격 :5000<영업시간 :09:00~21:00,착한가격업소
5,수제왕돈가스,완산구 충경로 84,35.8187702,127.1481616,대표품목 :기본돈가스<가격 :5000<영업시간 :11:00~21:00,착한가격업소
6,야미,"덕진구 권삼득로 333, 121호",35.8449363,127.1258928,대표품목 :수제돈까스<가격 :4900<영업시간 :11:00~20:30,착한가격업소
7,빵굽는나라,완산구 팔달로 263,35.8254754,127.1439011,대표품목 :도너츠3개<가격 :1000<영업시간 :06:00~21:00,착한가격업소
8,1500짜장집,완산구 거마산2길 8,35.7969648,127.1240282,대표품목 :짜장면<가격 :3000<영업시간 :11:30~19:00,착한가격업소
9,중본이쟁반짜장,완산구 공북로71,35.8261281,127.1395345,대표품목 :짜장면<가격 :3000<영업시간 :10:30~20:00,착한가격업소
10,한들각중화요리,완산구 안행로 112,35.8063203,127.1343594,대표품목 :짜장면<가격 :3000<영업시간 :11:00~20:00,착한가격업소
11,갈비전문점 엘에이 반월직영점,덕진구 쪽구름로 138,35.8742463,127.0702465,대표품목 :돼지갈비(350g)<가격 :13000<영업시간 :10:00~22:00,착한가격업소
12,녹색불고기,덕진구 송천1길 3-1,35.8562802,127.1196848,대표품목 :김치찌개<가격 :6000<영업시간 :09:30~21:30,착한가격업소
13,돼지한마리,완산구 현무1길 38-18,35.8223323,127.1480161,대표품목 :돼지한마리(750g)<가격 :39000<영업시간 :11:00~23:00,착한가격업소
14,두레박콩나물국밥,완산구 평화18길 30-26,35.7958742,127.1353578,대표품목 :비빔밥<가격 :6000<영업시간 :06:00~22:00,착한가격업소
15,만남의집,완산구 서학로 28-1,35.8095331,127.1525581,대표품목 :옻닭<가격 :40000<영업시간 :09:00~21:00,착한가격업소
16,맛자랑 팥고향집,완산구 서학로 32-4,35.80938,127.1529065,대표품목 :손칼국수<가격 :4000<영업시간 :09:00~21:00,착한가격업소
17,부잣집,덕진구 도당산로 70,35.8478572,127.1575541,대표품목 :토종옻닭(大)<가격 :24000<영업시간 :10:00~22:00,착한가격업소
18,서도비밥,"완산구 용머리로 36, 서도프라자 6층",35.8054176,127.1144062,대표품목 :삼계탕<가격 :10000<영업시간 :11:30~20:30,착한가격업소
19,서신정,완산구 감나무4길 26,35.8317184,127.1199359,대표품목 :제육볶음<가격 :7000<영업시간 :10:00~22:00,착한가격업소
20,섬진강백반,완산구 꽃밭정로 13,35.7967167,127.1343238,대표품목 :김치찌개<가격 :5000<영업시간 :09:00~21:00,착한가격업소
21,세은이네집,완산구 풍남문3길 13,35.8143121,127.1471342,대표품목 :국수<가격 :3900<영업시간 :11:40~14:00,착한가격업소
22,시래청,완산구 홍산3길 9,35.8183063,127.1080071,대표품목 :시래기국밥<가격 :8000<영업시간 :10:00~22:00,착한가격업소
23,신뱅이,완산구 경기전길 153-9,35.8126141,127.151841,대표품목 :콩나물국밥<가격 :7000<영업시간 :08:00~20:00,착한가격업소
24,아중고기마트 중화산점,완산구 한두평4길 6,35.815533,127.1235832,대표품목 :육회비빔밥<가격 :6000<영업시간 :10:00~22:00,착한가격업소
25,오늘의 행복 교대점,완산구 장승배기로 405,35.8065528,127.1529435,대표품목 :삼겹살(600g)<가격 :30000<영업시간 :10:00~22:30,착한가격업소
26,이래면옥,완산구 동문길 103,35.8177114,127.1485094,대표품목 :갈비탕<가격 :8000<영업시간 :11:30~20:00,착한가격업소
27,자유식당,완산구 풍남문3길 25,35.814864,127.1469393,대표품목 :청국장<가격 :5000<영업시간 :10:30~20:30,착한가격업소
28,전원갈비,완산구 서신천변로 57,35.8306612,127.1140669,대표품목 :우렁쌈밥<가격 :6000<영업시간 :11:00~22:00,착한가격업소
29,지정회관,완산구 서학로 27,35.8096925,127.1525036,대표품목 :삼겹살(200g)<가격 :12000<영업시간 :09:00~21:00,착한가격업소
30,지평선 한돈 전주점,덕진구 시천로 110-6,35.8689648,127.1155436,대표품목 :삼겹살(160g)<가격 :10000<영업시간 :10:00~22:00,착한가격업소
31,청라회관,완산구 노송여울2길 10,35.824217,127.1465512,대표품목 :돌솥비빔밥<가격 :7000<영업시간 :09:00~21:30,착한가격업소
32,해든마루,완산구 메너머3길 13-4,35.8235905,127.121075,대표품목 :백반<가격 :6000<영업시간 :10:00~21:00,착한가격업소
33,도나돈아,완산구 서신천변10길 12-8,35.8291684,127.1153211,대표품목 :오겹살(500g)<가격 :20000<영업시간 :17:00~24:00,착한가격업소
34,한일옥,완산구 중산중앙로 29,35.8166733,127.1214621,대표품목 :한우육회비빔밥<가격 :6000<영업시간 :11:00~22:00,착한가격업소
35,또또분식,덕진구 삼송3길 14,35.8424125,127.1354486,대표품목 :떡볶이 <가격 :3500<영업시간 :10:30~20:00,착한가격업소
36,또와분식,완산구 태평5길 41-5,35.8241988,127.1431661,대표품목 :찹쌀도너츠3개<가격 :1000<영업시간 :09:00~19:30,착한가격업소
37,신진미감자탕,완산구 거마평로 145,35.8052068,127.1161624,대표품목 :뼈다귀탕(뚝배기)<가격 :6000<영업시간 :10:00~21:00,착한가격업소
38,갈비전문점 엘에이 평화직영점,완산구 모악로 4701,35.7889772,127.1304971,대표품목 :돼지갈비(350g)<가격 :13000<영업시간 :10:00~22:00,착한가격업소
39,아서원,경암5길 63,35.9783208,126.7320489,대표품목 :짜장면<가격 :3500<영업시간 :11:00~19:00<부가설명 :지역아동센터 식사제공 및 지속적인 봉사활동,착한가격업소
40,국일식당,평화길 99-4,35.9861804,126.7166148,"대표품목 :복탕<가격 :7000<영업시간 :11:00~20:00<부가설명 :2019년 군산전통명가 선정, 생선을 직접 경매하여 신선하고 저렴한 가격으로 제공",착한가격업소
41,일출옥,구영6길 22-3,35.9852299,126.7087949,대표품목 :콩나물국밥<가격 :5000<영업시간 :05:00~19:00<부가설명 :부모의 전수를 이어받아 정성을 다해 조리함,착한가격업소
42,제주도횟집,동메1길 9-2,35.9708245,126.7121321,대표품목 :우럭탕<가격 :8000<영업시간 :10:00~23:00<부가설명 :넓은 주차장 확보 및 많은 객실수와 함께 최고의 맛을 자랑,착한가격업소
43,선현대솥뚜껑갈비,서수송길 17,35.9655705,126.7082308,대표품목 :삼겹살<가격 :11000<영업시간 :10:30~11:30<부가설명 :주인이 직접요리하며 메뉴개발로 맛의 특성화를 자랑,착한가격업소
44,토속해장국,신촌2길 8-2,35.9653956,126.7372104,"대표품목 :김치찌개<가격 :6000<영업시간 :05:30~14:00, 17:00~24:00<부가설명 :어머니의 손맛으로 정성을 다해 조리함",착한가격업소
45,명산칼국수,오룡로 57-2,35.9825559,126.709949,대표품목 :바지락칼국수<가격 :4500<영업시간 :11:00~15:00<부가설명 :김치를 매일 담가 신선하고 맛이 좋음,착한가격업소
46,대명옥,번영로 17,37.3131,126.729925,대표품목 :복탕<가격 :8000<영업시간 :07:00~21:00<부가설명 :생선을 직접 선별하여 착한가격에 공급,착한가격업소
48,은혜식당,구시장로 24,35.9820929,126.7199416,대표품목 :순두부찌개<가격 :5000<영업시간 :07:00~19:00<부가설명 :저렴한 가격의 입소문으로 장거리 손님도 많음/TV (KBS) 방영,착한가격업소
49,가야장,경암4길 4,35.9759179,126.731244,대표품목 :자장면<가격 :3500<영업시간 :09:00~20:30<부가설명 :오랜 경영의 경험과 전통을 지켜온 음식맛이 자랑임,착한가격업소
50,미주옥,구영7길 133-4,35.9893775,126.7122739,대표품목 :아욱국<가격 :5000<영업시간 :06:00~20:00<부가설명 :변하지 않는 맛으로 단골손님이 많음,착한가격업소
51,베테랑생돈까스,양안로 103-1,35.9717145,126.7434593,대표품목 :생돈까스<가격 :5000<영업시간 :11:00~21:00,착한가격업소
52,나라식당,서흥안2길 30,35.9722753,126.7080399,대표품목 :백반<가격 :6000<영업시간 :12:00~21:00<부가설명 :오랜 영업 경험으로 변하지 않는 맛으로 단골손님 확보,착한가격업소
53,꼬꼬꽥꽥,경암2길 24,35.9759134,126.7285481,대표품목 :오리로스<가격 :39000<영업시간 :11:00~22:00<부가설명 : 닭과 오리를 친환경 사육하여 고기맛이 좋음,착한가격업소
54,우리지빱,구영6길 126,35.9891714,126.7117097,대표품목 :백반<가격 :7000<영업시간 :11:00~20:00<부가설명 :매일 새벽시장을 오가며 신선한 재료로 12가지 밑반찬이 항상 새롭다,착한가격업소
55,시골마당,부골2길 49,35.9745396,126.7430339,대표품목 :게장백반<가격 :7000<영업시간 :09:00~21:00<부가설명 :게장을 직접 담가 저렴한 가격에 제공,착한가격업소
56,일신옥,구영7길 20,35.9847627,126.7091663,대표품목 :아욱국<가격 :5000<영업시간 :04:30~19:00<부가설명 :조미료를 첨가하지 않는 맛으로 무한리필 제공,착한가격업소
57,이포크정육식당,"미원로 61, 102호",35.9789138,126.7116871,대표품목 :삼겹살(100g기준)<가격 :4500<영업시간 :09:00~20:00<부가설명 :직접 정육점 운영으로 유통마진 없이 저렴한 가격에 제공,착한가격업소
58,한우네곱창,하신1길 12-2,35.9686952,126.6982045,대표품목 :돼지곱창<가격 :11000<영업시간 :16:00~04:00<,착한가격업소
59,이가매생이수제비칼국수,조촌안3길 19,35.9721908,126.7355627,대표품목 :매생이칼국수<가격 :6000<영업시간 :08:00~20:00<부가설명 :모는 메뉴에 매생이 첨가하여 직접 반죽가공품은 판매하지 않음,착한가격업소
60,유쾌한돈 미장점,미장안7길 6,35.9648517,126.7318418,"대표품목 :생삼겹살(150g)<가격 :4900<영업시간 :11:30~14:00, 16:30~22:00<부가설명 :돼지고기는 축산농장과 직거래로 중간유통을 줄여 저렴한 가격유지, KBS TV 생생정보 방영",착한가격업소
61,카페에스더,진포로 73,35.9662385,126.7295471,"대표품목 :아메리카노<가격 :2500<영업시간 :11:00~22:00<부가설명 :반려동물 동반가능 카페, 업소 메뉴에 개푸치노 메뉴로 반려견과 함께 커피를 즐길 수 있음",착한가격업소
62,치바라멘,동수송9길 12,35.9654492,126.7194541,대표품목 :치바라멘<가격 :5500<영업시간 :12:00~24:00<부가설명 :천연재료를 사용하여 맛의 풍미를 더하고 조미료 맛이 나지 않아 음식이 느끼함이 없음,착한가격업소
63,다향양푼갈비,선화로 262,35.9440631,126.9588216,대표품목 :삼겹살 (200g)<가격 :12000<영업시간 :11:00~21:00<부가설명 :인근 사무실 주 고객,착한가격업소
64,진미식당,황등면 황등로 158,36.0058591,126.9448617,"대표품목 :국밥<가격 :5000<영업시간 :11:00~21:00<부가설명 :74년 최초 영업, 넉넉한 인심, 06년 이후 가격동결",착한가격업소
65,시청앞밥집,인북로32길 18-4,35.9471553,126.9585228,"대표품목 :삼겹살(200g)<가격 :10000<영업시간 :11:00~22:00<부가설명 :인근사무실 주 고객, 반찬거리 직접 재배 이익최저 유지",착한가격업소
66,원식당,인북로7길 12,35.9428543,126.9534993,"대표품목 :백반<가격 :5000<영업시간 :11:00~09:00<부가설명 :가족영업 인건비 절약, 가격저렴",착한가격업소
67,이랴꿀꿀,하나로11길 21,35.9591178,126.9793043,"대표품목 :김치전골(점심특선)<가격 :6000<영업시간 :11:00~22:00<부가설명 :점심특선메뉴(11시~3시), 깔끔하고 다양한 밑반찬",착한가격업소
68,오천냥한식부페,서동로11길 6,35.9339193,126.9610899,대표품목 :한식뷔페<가격 :5500<영업시간 :11:00~21:00<부가설명 :당일 모든 음식 준비로 반찬 신선,착한가격업소
69,김가네순두부생선탕,동서로19길 37,35.9575716,126.9565826,대표품목 :아구순두부전골<가격 :6000<영업시간 :11:00~22:00<부가설명 :음식이 담백하고 깔끔한 영업장 환경 유지,착한가격업소
70,별미식당,주현로 8길 47,35.9348574,126.9607577,대표품목 :백반<가격 :6000<영업시간 :11:00~21:00<부가설명 :상시 이용객 단골층 형성으로 가격인상 억제 운영,착한가격업소
71,황룡반점,인북로9길 14-4,35.9526626,126.9573866,"대표품목 :짜장<가격 :2500<영업시간 :11:00~21:00<부가설명 :임대료 및 인건비 없음, 방문객에 한해 저렴한 가격판매",착한가격업소
72,짜장천짬뽕천,인북로9길 11,35.9524393,126.9575205,"대표품목 :짜장<가격 :2500<영업시간 :11:00~21:00<부가설명 :야채와 해물 인근 시장에서 조달, 중식 레스토랑 경험으로 맛이 좋고 저렴함",착한가격업소
73,세미국수,인북로3길 27,35.938463,126.9501156,"대표품목 :물국수<가격 :2000<영업시간 :10:00~18:00<부가설명 :유튜브·생생정보통 맛집, 우월한 가성비 자랑",착한가격업소
74,별난삼겹,하나로9길 14,35.9580832,126.9804812,"대표품목 :삼겹살(150g)<가격 :7000<영업시간 :11:00~21:00<부가설명 :국내산 생고기 및 산채나물(명이나물, 초석잠 등) 제공",착한가격업소
75,만다린,정읍시 정읍남로 1393,35.5586339,126.854619,대표품목 :자장면<가격 :4000<영업시간 :11:00~20:00,착한가격업소
76,청원,정읍시 샘골로 76,35.5768151,126.8548691,대표품목 :자장면<가격 :3000<영업시간 :11:00~21:00,착한가격업소
77,영천칡냉면갈비,정읍시 수성택지5길 48-3,35.5821405,126.8528545,대표품목 :냉면<가격 :4000<영업시간 :10:00~22:00,착한가격업소
78,오죽헌가든,정읍시 동학로 24,35.5870108,126.8271754,대표품목 :백반<가격 :6000<영업시간 :09:00~21:00,착한가격업소
79,풍성한술불갈비,정읍시 초산3길 3,35.5609236,126.8530779,대표품목 :돼지갈비(300g)<가격 :13000<영업시간 :12:00~22:00,착한가격업소
80,양지뜰,정읍시 소성로 644,35.5851588,126.8181169,대표품목 :돌솥백반<가격 :7000<영업시간 :10:00~21:00,착한가격업소
81,목련회관,정읍시 충정로 526,35.5832478,126.8304117,대표품목 :삼계탕<가격 :10000<영업시간 :10:00~22:00,착한가격업소
82,금화식당,정읍시 태평 7길 42,35.5634601,126.855609,대표품목 :시래기국밥<가격 :6000<영업시간 :09:00~20:00,착한가격업소
83,샘골순대국밥,정읍시 태평7길 41,35.5635606,126.855488,대표품목 :시래기국밥<가격 :6000<영업시간 :07:00~22:00,착한가격업소
84,시민식당,정읍시 초산로 42-10,35.5623852,126.8542882,대표품목 :자장면<가격 :2000<영업시간 :11:00~18:00,착한가격업소
85,마포통갈비,정읍시 수성택지3길 15,35.5780035,126.8562014,대표품목 :돼지갈비(250g)<가격 :9000<영업시간 :10:00~22:00,착한가격업소
86,코끼리밥상,정읍시 중앙로 4,35.5748631,126.8438447,대표품목 :김치찌개<가격 :5000<영업시간 :06:00~20:00,착한가격업소
87,한솥밥뚝배기,정읍시 중앙로 2,35.5753152,126.8440932,대표품목 :동태찌개<가격 :5000<영업시간 :07:00~20:00,착한가격업소
88,남산이발관,정읍시 초산로5,35.5599721,126.8516869,대표품목 :이용료<가격 :5000<영업시간 :08:00~19:00,착한가격업소
89,국수야,정읍시 수성3로 39-1,35.5831841,126.8576694,대표품목 :국수<가격 :3900<영업시간 :10:00~20:00,착한가격업소
90,갈비마을,정읍시 수성택지5길 48-9,35.5821524,126.8526489,대표품목 :삼겹살(200g)<가격 :6000<영업시간 :10:00~23:00,착한가격업소
91,비룡,정읍시 관통로 21,35.5645977,126.8608866,대표품목 :삼선짜장<가격 :5000<영업시간 :10:00~21:00,착한가격업소
92,부엉이식당,정읍시 상동중앙로 3-1,35.5576822,126.8656002,대표품목 :백반<가격 :4000<영업시간 :07:00~21:00,착한가격업소
93,연지순대,정읍시 연지시장3길 48-1,35.5732086,126.846313,대표품목 :순대국밥<가격 :5000<영업시간 :10:00~20:00,착한가격업소
94,최민자국밥,정읍시 칠보면 중앙로 109,35.6053239,126.9899758,대표품목 :콩나물국밥<가격 :5000<영업시간 :10:00~20:00,착한가격업소
95,궁전식당,정읍시 북면 정읍북로 610,35.6124587,126.8928963,대표품목 :백반<가격 :6000<영업시간 :10:00~20:00,착한가격업소
96,외식일번가,정읍시 상동중앙로 78,35.563144,126.8701291,대표품목 :꽃등심(200g)<가격 :16000<영업시간 :10:00~20:00,착한가격업소
97,백년설렁탕,정읍시 중앙로 150,35.5655264,126.85467,대표품목 :설렁탕<가격 :6500<영업시간 :10:00~22:00,착한가격업소
98,김가네삼계탕추어탕,정읍시 수성2로 27-6,35.5822932,126.8550203,대표품목 :삼계탕<가격 :8000<영업시간 :11:00~21:00,착한가격업소
99,고향촌,정읍시 수성로 35,35.5813433,126.8543962,대표품목 :삼겹살<가격 :9000<영업시간 :10:00~23:00,착한가격업소
100,광한루석쇠구이,광한서로 37,35.4045252,127.3778622,대표품목 :석쇠불고기<가격 :8000<영업시간 :11:00~22:00<부가설명 :불고기 메뉴만 제공하고 있으며 저렴간 가격과 친절함으로 많은 손님들이 이용,착한가격업소
101,춘향루,동문로 19-3(죽항동),35.4072003,127.3856728,대표품목 :짜장면<가격 :2000<영업시간 :11:00~22:00<부가설명 :배달을 하지 않음으로써 저렴한 가격으로 많은 손님들이 찾는 중국음식점,착한가격업소
102,지리산 칡냉면,주천면 정령치로 92,35.3906076,127.4454398,대표품목 :물냉면<가격 :8000<영업시간 :09:00~19;00<부가설명 :주천면사무소 인근의 음식점으로 냉면전문점이며 단품메뉴로 관련 식재료 대량 구매,착한가격업소
103,우소보소,옥정4길 11-2,35.4151168,127.3877932,대표품목 :조기찌개백반<가격 :6000<영업시간 :09:00~22:00<부가설명 :농협5거리 인근의 식당으로 저렴한 가격과 친철함으로 많은 손님이 이용,착한가격업소
104,선비고을,양림길 68(어현동),35.4031352,127.3895004,대표품목 :갈치백반정식<가격 :8000<영업시간 :09:00~21:00<부가설명 :양림단지 내의 식당으로 단품메뉴로 갈치 대량 구매가격변동분 대처,착한가격업소
105,세영회관,금지면 요천로 89,35.3175835,127.2986057,"대표품목 :홍삼삼계탕<가격 :11000<영업시간 :11:00~21:00<부가설명 :전라남북도 경계에 위치한 식당으로 인근 지역 주민까지 다수 방문하는 곳으로 가족경영, 식자재 직접 구매",착한가격업소
106,공설새식당,의총로 51(금동),35.404614,127.3758737,"대표품목 :보리밥<가격 :4000<영업시간 :08:00~15:00<부가설명 :공설시장내 상가로 시장에서 식재료 구입, 저렴한 가격으로 시장 고객들이 많이 이용",착한가격업소
107,인월분식,인월면 인월남길 4,35.4611215,127.6035123,대표품목 :칼국수<가격 :5000<영업시간 :07:00~20:00<부가설명 :인월터미널 주변에 있는 분식점으로 저렴한 가격과 뛰어난 맛으로 여행객들과 주민들이 많이 이용하는 곳,착한가격업소
108,춘원회관,고샘길 104(쌍교동),35.4048434,127.381879,"대표품목 :속청태콩국수<가격 :6500<영업시간 :10:00~21:00<부가설명 :속청태로 특허출허까지 한 곳으로 콩국수,냉면 등 면류에 특화된 식당",착한가격업소
109,두부마을,양림길 28-7(어현동),35.4019131,127.3882694,대표품목 :순두부백반<가격 :6000<영업시간 :09:30~21:00<부가설명 :위생모범업소로 두부관련되어 특화된 식당으로 주재료 두부 직접 생산,착한가격업소
110,향우정,도화동길 11(천거동),36.9000429,127.9647385,대표품목 :갈비탕<가격 :7000<영업시간 :11:00~22:00<부가설명 :금동에 위치한 음식점으로 저렴한 가격과 친절함으로 많은 손님이 이용,착한가격업소
111,이조갈비,향단로 18(쌍교동),35.4047691,127.3825543,대표품목 :삼겹살 180g<가격 :10000<영업시간 :11:00~22:00<부가설명 :위생모범업소로 가족경영으로 저렴하고 친절하여 많은 손님이 이용,착한가격업소
112,토종감자국수,충정로 137(향교동),36.3427411,127.4492053,대표품목 :국수(소)<가격 :4000<영업시간 :10:00~19:00,착한가격업소
113,지리산 정육식당,시청로 15(죽항동),37.478605,126.8635462,대표품목 :육회비빔밥<가격 :8000<영업시간 :10:00~20:00<부가설명 :선원사 사거리 부근에 위치한 식당으로 정육점을 같이 운영하고 있어 저렴한 가격과 신선한 육류 제공,착한가격업소
114,춘향골 한우회관,광한서로 88(하정동),35.408961,127.3783981,"대표품목 :돌솥, 육회비빔밥<가격 :9000<영업시간 :10:00~20:00<부가설명 :용남시장 인근에 위치하고 있는 육류 전문 식당으로서넓은 공간, 저렴한 가격으로 많은 손님들이 찾는 식당임",착한가격업소
115,남원사랑채,향단로 24(쌍교동),35.4053075,127.3827199,대표품목 :능이닭곸탕<가격 :7000<영업시간 :10:00~20:00<부가설명 :광한루인근에 위치하여 저렴한 가격과 서비스로 관광지를 찾는 손님들에게 친절한 서비스 제공,착한가격업소
116,남원고을,시청남로 22(도통동),35.4161765,127.3920435,"대표품목 :백반<가격 :7000<영업시간 :10:00~20:00<부가설명 :시청인근에 위치하여 서민이 많이 찾는 백반, 갈비탕, 돈까스 등의 메뉴를 친절한 서비와 저렴함 가격으로 제공",착한가격업소
117,가시버시,향단로 9,35.4041313,127.3821816,대표품목 :갈치정식<가격 :10000<영업시간 :11:00~20:00<부가설명 :광한루인근에 위치하여 저렴한 가격으로 관광지를 찾는 손님들과 남원 현지인에게 친절한 서비스 제공,착한가격업소
118,조교수 숯불갈비,큰들2길 8,35.4153494,127.3970123,대표품목 :갈비탕<가격 :8000<영업시간 :10:00~22:30<부가설명 :주차장이 겸비한 음식점으로 저렴한 가격과 서비스로 많은 가족 손님이 이용,착한가격업소
119,아구타운,시청동로 22-15,35.4160646,127.3925223,대표품목 :대구뽈탕<가격 :8000<영업시간 :10:00~21:00<부가설명 :시청 주변에 위치한 음식점으로 저렴한 점심특선과 해물메뉴와 친절한 서비스 제공,착한가격업소
120,착한한우,동림로 9,35.4099552,127.3900552,대표품목 :불고기전골/육회비빔밥<가격 :8000<영업시간 :11:00~21:30<부가설명 :정육식당을 겸비한 식당으로 저렴한 가격으로 많은 손님들이 찾는 식당임,착한가격업소
121,단야골,부량면 벽골제로 442,35.7553583,126.8535125,대표품목 :백반<가격 :6000<영업시간 :10:00~20:00<부가설명 :우리 전통 건물을 멋나게 꾸며 토속적이고 전통적인 인테리어로 독립적인 공간 확보,착한가격업소
122,명천슈퍼,공덕면 청공로 680-1,35.8866375,126.8956087,"대표품목 :백반<가격 :6000<영업시간 :11:00~20:00<부가설명 :정육점, 식당, 슈퍼를 같이하는 곳으로 백종원의 3대천왕 방영",착한가격업소
123,무지개팥죽,남북로 210,35.8026954,126.8846688,"대표품목 :동지팥죽<가격 :6000<영업시간 :10:00~19:00<부가설명 :좋은재료, 정성듬뿍, 20년 가까이 운영, 전통의 손맛을 찾는 단골고객이 많으며, 매일 직접 반죽하여 만든 수제면이 쫄깃",착한가격업소
124,민들레국시,요촌중길 79,35.8064532,126.890979,"대표품목 :청국장<가격 :5000<영업시간 :11:00~19:00<부가설명 :콩, 채소류는 직접경작 기타 식재료는 새벽 농협공판장 구입 주로 직장인 대상으로 하는 만큼 가급적 저렴히 제공하려 함",착한가격업소
125,성환식당,백산면 학당길 10,35.82825,126.8925282,대표품목 :백반<가격 :6000<영업시간 :11:00~20:00<부가설명 :직접 가꾼 콩으로 메주를 띄워 된장을 담궈 질좋고 맛좋은 음식 제공,착한가격업소
126,예촌,금구로 43-1,35.774414,127.0108333,대표품목 :비빔밥<가격 :6000<영업시간 :10:00~21:00<부가설명 :복고적이면서 촌스럽지 않은 분위기와 재미있는 인테리어 소품과 문구,착한가격업소
128,꽃사슴로스,김제시 중앙로 178,35.8005072,126.8934841,대표품목 :김치찌개<가격 :5000<영업시간 :11:00~21:00<부가설명 :가격이 저렴하고 고기질도 좋고 밑반찬도 많이주어 손님들로부터 호평,착한가격업소
129,이가네국수학교,김제시 요촌서길 30,35.8055142,126.8879412,대표품목 :칼국수<가격 :5000<영업시간 :10:00~21:00<부가설명 :저렴한 가격과 신선한 재료를 이용 단골고객 많음,착한가격업소
130,거북선,김제시 콩쥐팥쥐로 16,35.8054968,126.9071715,대표품목 :백반<가격 :4000<영업시간 :10:00~21:00<부가설명 :김제시내로 들어오는 길목에 위치하고 있으며 거북선 모양으로 된 건물로 시선이 집중되며 깔끔한 맛으로 저렴하게 운영,착한가격업소
131,싸가지없은갈비,김제시 콩쥐팥쥐로 16,35.8054968,126.9071715,대표품목 :돼지갈비(200g)<가격 :10000<영업시간 :10:00~21:00<부가설명 :정육점과 식당 직접 운영하며 신선한 고기만을 고집하고 가격이 저렴,착한가격업소
132,왕큰피순대,김제시 요촌북로 6-8,35.8069659,126.8843189,대표품목 :왕순대국밥<가격 :6000<영업시간 :10:00~22:00<부가설명 :도축회사와 직거래로 유통과정을 최소화 하여 재료원가 절감 및 부부가 직접 경영으로 인건비 절감,착한가격업소
133,회진정육식당,김제시 도작로 103,35.8036866,126.8996448,대표품목 :삼겹살(200g)<가격 :11000<영업시간 :11:00~22:00<부가설명 :정육점과 식당 직접 운영하며 신선한 고기만을 고집하고 가격이 저렴,착한가격업소
134,두손왕족발,김제시 성산실 154,35.8010713,126.8840312,대표품목 :왕족발(대)<가격 :24000<영업시간 :08:00~20:00<부가설명 :전통시장내에 위치하고 있고 1인 직접경영으로 인건비 절약하여 더저렴하게 운영,착한가격업소
135,하우치,김제시 도작9길 34,35.8031593,126.8985369,대표품목 :자장면<가격 :3000<영업시간 :08:00~20:00<부가설명 :부부가 직접경영으로 인건비 절약하여 더저렴하게 운영,착한가격업소
136,맛있는밥집&맛있는커피,김제시 콩쥐팥쥐로 272,35.8168547,126.9313657,대표품목 :한식<가격 :7000<영업시간 :11:30~14:30<부가설명 :김제시로 들어오는 길목에 위치하고 있어 김제를 찾는 분들에게 좋은 인상을 줄수 있고 한식뷔페로 항상 신선한 재료로 사용하며 카페와 같이 운영하여 저렴하고 맛있는 커피를 즐길 수 있음,착한가격업소
137,촌돼지,김제시 도작로 20,35.7975105,126.9048076,대표품목 :삼겹살(200g)<가격 :12000<영업시간 :16:00~01:00<부가설명 :매일 신선한 고기로 초벌구이로 육즙을 잡아 제공,착한가격업소
138,오늘은 갈비,김제시 요촌길 130,35.8054399,126.8912597,대표품목 :김치찌개<가격 :6000<영업시간 :10:00~22:00<부가설명 :쌀농사를 직접 지어 사용하고 있으며 친정에서 야채를 재배하여 항상 신선한 재료를 사용,착한가격업소
139,국밥집,삼례읍 녹색로 91,35.9183347,127.0776037,대표품목 :콩나물국밥<가격 :5000<영업시간 :10:00~22:00<부가설명 :부부가 운영하여 인건비 절감,착한가격업소
140,이레가든,봉동읍 하월길41,35.9378726,127.1674907,대표품목 :김치전골<가격 :7000<영업시간 :11:00~21:00<부가설명 :김치찌개 생고기 사용,착한가격업소
141,할머니국수,봉동읍 동서로 136-3,35.938887,127.1671333,대표품목 :국수(소)<가격 :3500<영업시간 :10:00~19:00<부가설명 :60년 전통 삼대국수집,착한가격업소
142,불타는짜장,봉동읍 봉동로 428,35.9551142,127.1455293,대표품목 :자장면<가격 :5000<영업시간 :10:30~20:00<부가설명 :매운맛을 즐기는 매니아층이 두터워 유명,착한가격업소
143,유일가든,봉동읍 원둔산5길 19,35.9607739,127.1222212,대표품목 :삼겹살(170g)<가격 :11000<영업시간 :09:00~22:00<부가설명 :24년 전통이 있는 고깃집,착한가격업소
144,코아루황태,봉동읍 둔산3로22,35.9572976,127.1244582,대표품목 :황태탕<가격 :7000<영업시간 :11:00~21:00<부가설명 :가족이 운영 인건비 절감,착한가격업소
145,선심갈비,봉동읍 봉동로 137-6,35.9373048,127.1677247,대표품목 :선짓국<가격 :6000<영업시간 :10:00~21:00<부가설명 :고기는 국내산,착한가격업소
146,하나분식,봉동읍 봉동동서로 76,35.9357774,127.1617721,대표품목 :국수<가격 :4000<영업시간 :10:00~21:00<부가설명 :가족이 운영 인건비 절감,착한가격업소
147,토지,봉동읍 완주산단9로11,35.9611687,127.1273148,대표품목 :생삼겹살(200g)<가격 :12000<영업시간 :10:00~22:00<부가설명 :각종 양념 직접 양념,착한가격업소
148,돈내고 돈먹는집,봉동읍 둔산3로56,35.9598388,127.1259382,대표품목 :간장게장<가격 :8000<영업시간 :11:00~23:00<부가설명 :부부가 운영하여 인건비 절감,착한가격업소
149,초포가든,용진면 구억명덕로 19,35.8752429,127.1586886,대표품목 :돼지생구이(200g)<가격 :10000<영업시간 :11:00~21:30<부가설명 :완주군 모범업소,착한가격업소
150,시골집국수,용진면 완주로 179,35.881174,127.1556003,대표품목 :국수<가격 :3000<영업시간 :09:00~20:00<부가설명 :국수는 무한리필,착한가격업소
151,정일품,용진면 완주로 175,35.8807466,127.1555141,대표품목 :한방삼계탕<가격 :12000<영업시간 :11:00~21:30<부가설명 :지역농산물을 사용 재료가 신선함,착한가격업소
152,전주회관,상관면 새원길 40,35.7678603,127.209868,대표품목 :백반<가격 :6000<영업시간 :11:30~21:00<부가설명 :실내 및 화장실 등 시설보수로 깨끗,착한가격업소
153,신세대분식,상관면 신리로 99,35.7703364,127.20688,대표품목 :돈까스<가격 :5000<영업시간 :11:30~20:00<부가설명 :부부가 운영하여 인건비 절감,착한가격업소
154,다영분식,"상관면 신리로 99,상가동118호",35.7703364,127.20688,대표품목 :김치찌개<가격 :5500<영업시간 :08:00~20:00<부가설명 :지역농산물을 사용 재료가 신선함,착한가격업소
155,옛날국수,구이면 상하학길 94,35.7319889,127.110733,대표품목 :국수<가격 :3000<영업시간 :10:30~19:00<부가설명 :옛분위기가 나는 국수집,착한가격업소
156,일월성,고산면 고산로 94-4,35.9745225,127.2070151,대표품목 :자장면<가격 :4000<영업시간 :07:00~19:00<부가설명 :부부가 운영하여 인건비 절감,착한가격업소
157,아지트분식,고산면 읍내1길 9,35.9757212,127.2068294,대표품목 :칼국수<가격 :4500<영업시간 :08:00~20:00<부가설명 :부부가 운영하여 인건비 절감,착한가격업소
158,다미가,고산면 남봉로 135,35.9744511,127.2047122,대표품목 :우동<가격 :5000<영업시간 :10:00~21:00<부가설명 :지역의 신선한 재료를 사용,착한가격업소
160,전주식당,운주면 장선로 125,36.0928837,127.2771276,대표품목 :백반<가격 :5000<영업시간 :07:00~19:00<부가설명 :밑반찬 지역농산물 사용,착한가격업소
161,용평식당,운주면 운주로 128,36.0934407,127.2772087,대표품목 :김치찌개<가격 :6000<영업시간 :10:00~20:00<부가설명 :부부가 운영하여 인건비 절감,착한가격업소
162,천등산식당,운주면 운주로 9,36.0839538,127.2818076,대표품목 :동태찌개<가격 :7000<영업시간 :11:00~21:00<부가설명 :멋진 주변풍경,착한가격업소
163,진안한우전문점,진안군 진안읍 대성길 6,35.7886916,127.4231428,대표품목 :갈비탕<가격 :8000<영업시간 :10:00~22:00,착한가격업소
164,왕다리분식,진안군 진안읍 진무로 1092,35.7917362,127.4279197,대표품목 :김밥<가격 :2000<영업시간 :10:00~22:00,착한가격업소
165,구구식당,진안군 진안읍 시장1길 16,35.7926281,127.4294045,대표품목 :순대국밥<가격 :6000<영업시간 :10:00~22:00,착한가격업소
166,진안장터식당,진안군 진안읍 시장1길 16,35.7926281,127.4294045,대표품목 :돼지불백<가격 :7000<영업시간 :10:00~22:00,착한가격업소
167,진안순두부,진안군 진안읍 시장1길 16,35.7926281,127.4294045,대표품목 :순두부 <가격 :6000<영업시간 :10:00~22:00,착한가격업소
168,돼지마을,진안군 용담면 안용로 939,35.9585592,127.5200076,대표품목 :김치찌개<가격 :7000<영업시간 :10:00~22:00,착한가격업소
169,빵돌이네,진안군 진안읍 시장1길 16,35.7926281,127.4294045,대표품목 :국수<가격 :3500<영업시간 :10:00~22:00,착한가격업소
170,뚝배기,진안군 진안읍 시장1길 16,35.7926281,127.4294045,대표품목 :콩나물국밥<가격 :6000<영업시간 :06:00~14:00,착한가격업소
171,밀과보리,진안군 진안읍 시장1길 16,35.7926281,127.4294045,대표품목 :보리비빔밥<가격 :6000<영업시간 :10:00~22:00,착한가격업소
172,구룡식당,진안군 진안읍 시장1길 16,35.7926281,127.4294045,대표품목 :콩나물국밥<가격 :6000<영업시간 :10:00~22:00<부가설명 :지정취소(2019-12-17),착한가격업소
173,대리만족,진안군 진안읍 시장1길 16,35.7926281,127.4294045,대표품목 :보리밥<가격 :6000<영업시간 :10:00~22:00,착한가격업소
174,청운회관,무주읍 주계로 3길 2-3,36.0063653,127.6578548,대표품목 :오리로스<가격 :5000<영업시간 :11:00~22:00<부가설명 :오랫동안 같은 가격으로 판매하여 단골 손님 확보,착한가격업소
175,송림식당,무주읍 단천로3길 5,36.0079812,127.6579271,대표품목 :추어탕<가격 :7000<영업시간 :11:00~22:00<부가설명 :매일 농장에서 직송되는 신선한 오리를 재료로 위생적이고 영양만점의 오리 전문점으로 승부,착한가격업소
176,마실길식당,무주읍 당산길 4,36.0044128,127.6677172,대표품목 :청국장<가격 :5000<영업시간 :11:00~22:00<부가설명 :재료를 직접 농사를 지어서 자체조달하여 신선하고 저렴하게 서비스 제공,착한가격업소
177,남대천숯불갈비,무주읍 당산강변로 130,36.002995,127.655599,대표품목 :돼지갈비<가격 :11000<영업시간 :11:00~22:00<부가설명 :숯불갈비만을 고집하여 제공함으로 영업노하우를 활용하여 가족단위 고객유치,착한가격업소
178,천마루,안성면 장무로 1730,35.8411959,127.6508759,대표품목 :짜장<가격 :4000<영업시간 :11:00~22:00<부가설명 :왕갈비 짬뽕을 새로운 메뉴로 개발하여 고객들이 줄을서서 기다렸다가 먹고갈 정도로 인기 유지,착한가격업소
179,미락식당,설천면 무설로 1616,36.0073296,127.7894484,대표품목 :국밥<가격 :6000<영업시간 :11:00~22:00<부가설명 :관공서 주위에 위치하여 가격을 오랫동안 유지함으로 인해서 단골위주의 영업,착한가격업소
180,대중회관,안성면 안성로 295-1,35.8678277,127.6544818,대표품목 :한식백반<가격 :7000<영업시간 :11:00~22:00<부가설명 :오랫동안 한자리에서 한결같은 가격으로 손님을 맞고  있어 손님들이 내집처럼 편안하게 느끼고 찾는 곳,착한가격업소
181,남천식당,무주읍 단천로 95,36.0078898,127.6615107,대표품목 :양념갈비<가격 :10000<영업시간 :11:00~22:00<부가설명 :넓은 주차장과 단체석이 준비되어 있어 단체 손님이 많음,착한가격업소
182,장터국밥,설천면 삼도봉로 19-3,36.0103747,127.7890813,대표품목 :장터국밥<가격 :7000<영업시간 :11:00~22:00<부가설명 :태권도원과 인접하여 태권도국밥을 개발함으로서 인기를 끌고 태권도도 홍보함으로서 자부심을 가지고 영업,착한가격업소
183,토석정,설천면 무설로 1718,35.9986824,127.7926949,대표품목 :돼지갈비<가격 :10000<영업시간 :11:00~22:00<부가설명 :구천동을 찾는 관광객들에게 무주의 좋은 이미지를 주고 맛있는 음식을 저렴하게 제공하는 것으로 이미지 제고,착한가격업소
184,모든이의하우스,무주읍 주계로8길8-6,36.0073769,127.662052,대표품목 :버섯순두부백반<가격 :6000<영업시간 :08:00~22:00<부가설명 :음식점 이름처럼 모든이들이 부담없이 무난하게 즐길 수 있는 메뉴로 손님들에게 인기,착한가격업소
185,호야네식당,무주읍 장터로2,36.0046494,127.6535357,대표품목 :장날백반<가격 :5000<영업시간 :08:00~22:00<부가설명 :전통시장을 방문하는 방문객들과 상시 방문하는 손님들을 한결같이 친절하게 대하고 저렴한 가격으로 제공,착한가격업소
186,왕조식당,설천면 무설로 1579,36.0098541,127.7870045,대표품목 :된장찌개<가격 :7000<영업시간 :11:00~22:00<부가설명 :무주에서 황태구이 요리를 가장먼저 시작했다는 자부심으로 최상의 진부령 황태만을 고집하여 손님에게 서비스,착한가격업소
187,할매국수,무주읍 장터로2,36.0046494,127.6535357,대표품목 :보리밥<가격 :5000<영업시간 :11:00~22:00<부가설명 :전통시장내에 위치하여 상시 영업으로 전통시장을 활성화하는데 앞장,착한가격업소
188,수원곰탕 국수마을포차,안성면 칠연로 38,35.86633,127.6535779,대표품목 :백반<가격 :7000<영업시간 :11:00~22:00<부가설명 :전통시장을 찾는 손님들에게 늘 한결같은 미소와 가격으로 맞이하여 고객 확보,착한가격업소
189,주민자치식당,부남면 부남로 854,35.971108,127.5597611,대표품목 :백반<가격 :6000<영업시간 :11:00~22:00<부가설명 :산자수려한 부남강변에 위치하여 레프팅을 하는 관광객들을 대상으로 단체손님을 유치하여 영업,착한가격업소
190,반딧불한우촌,안성면 구량천로 198,35.8665594,127.657677,대표품목 :돼지갈비<가격 :10000<영업시간 :11:00~22:00<부가설명 :덕유산자락에 자리하고 있는 곳으로 칠연계곡을 찾는 관광객 및 주민들이 자주 찾는 곳으로 저렴한 가격 유지,착한가격업소
191,금호축산식당,무주읍 한풍루로 363,36.0048542,127.6658432,대표품목 :된장찌개<가격 :5000<영업시간 :11:00~22:00<부가설명 :정육점에서 고기를 구입하고 식당을 제공하고 있어 고객들이 가격이 저렴함을 피부로 느낄 수 있음,착한가격업소
192,설천맛집,설천면 삼도봉로 11,36.0099012,127.7880181,대표품목 :순두부<가격 :7000<영업시간 :11:00~22:00<부가설명 :직접 재배한 채소를 이용하여 가격을 맞추고 찾아오는 손님들에게 최상의 서비스 제공,착한가격업소
193,장터회관,무풍면 현내로 214,35.9690697,127.8488362,대표품목 :삼겹살<가격 :10000<영업시간 :11:00~22:00<부가설명 :전통시장 주변에 위치하고 있으며 가족들이 먹는 음식으로 정성스럽게 준비하여 싼 가격에 제공,착한가격업소
194,아리수,무주읍 단천로 55-1,36.0076285,127.6571201,대표품목 :짜장<가격 :4000<영업시간 :11:00~22:00<부가설명 :깔끔한 인테리어와 짬뽕육수가 진국,착한가격업소
195,소문난 시골순대,무주읍 장터로2,36.0046494,127.6535357,대표품목 :순대국밥<가격 :7000<영업시간 :07:00~19:00<부가설명 :시장 내에 있어 접근성이 좋고 메뉴가 다양함,착한가격업소
196,한풍루마당,무주읍 한풍루로 326-6,36.0035448,127.6615833,"대표품목 :셀프무한리필 세트메뉴(삼겹살무한리필, 된장찌개, 공기밥)<가격 :12900<영업시간 :11:00~21:00<부가설명 :무주를 찾는 관광객들의 접근성이 좋고, 가격이 저렴하고 맛이 좋아 손님들의 만족도가 높음",착한가격업소
197,거북식당,무주읍 장터로2,36.0046494,127.6535357,대표품목 :백반<가격 :6000<영업시간 :09:00~22:00<부가설명 :재료를 직접 채취하여 제철재료로 반찬을 제공하여 이용객의 만족도가 높음,착한가격업소
198,매일왕순대,"무주읍 장터로 2, 꽃반디동 4동",36.0046494,127.6535357,대표품목 :순대국밥<가격 :7000<영업시간 :07:00~20:00<부가설명 :특색있는 고기짬뽕 판매,착한가격업소
199,반디어촌,무주읍 장터로 2,36.0046494,127.6535357,대표품목 :어죽<가격 :6000<영업시간 :09:30~20:30<부가설명 :재료를 직접 조달하여 가격이 저렴,착한가격업소
200,미가한식,"설천면 구천동1로 95, A-5",35.8992969,127.7771311,대표품목 :된장찌개<가격 :8000<영업시간 :08:00~21:00<부가설명 :구천동 관광지에 위치해있으며 위생모범업소임,착한가격업소
201,덕유산한우가,설천면 구천동로 1053,35.9069365,127.7605819,대표품목 :한우육회비빔밥<가격 :8000<영업시간 :09:00~22:00,착한가격업소
202,무주수련원,무주읍 괴목로 1330,36.0050216,127.6847859,대표품목 :목살숯북구이<가격 :10000<영업시간 :08:00~18:00,착한가격업소
203,송천가든,장수군 장수읍 백장로 2167,35.6426711,127.5165773,대표품목 :찌개백반<가격 :7000<영업시간 :12:00~20:00,착한가격업소
204,벽송갈비,장수읍 장천로 226,35.6522088,127.5200875,"대표품목 :돼지갈비<가격 :11000<영업시간 :11:00~14:00, 17:00~21:30",착한가격업소
205,청산,장수읍 노하1길 2,35.6500161,127.5165925,대표품목 :삼겹살<가격 :12000<영업시간 :11:00~21:00,착한가격업소
206,청기와집,장계면 한들로 181,35.7301575,127.5915734,대표품목 :한방오리탕<가격 :40000<영업시간 :10:00~21:00,착한가격업소
207,전원식당,번암면 장수로 496,35.5327568,127.544099,대표품목 :흙돼지삼겹살<가격 :10000<영업시간 :11:00~21:00,착한가격업소
208,진풍장,천천면 춘송길 19,35.736055,127.5348709,대표품목 :추어탕<가격 :7000<영업시간 :12:00~20:00,착한가격업소
209,청포식당,계북면 장무로 965-1,35.7858681,127.6128541,대표품목 :삼겹살<가격 :12000<영업시간 :09:00~21:00,착한가격업소
210,전주식당,번암면 장수로 484,35.5318769,127.5442221,대표품목 :김치찌개(1인)<가격 :7000<영업시간 :10:00~21:00,착한가격업소
211,부자회관,장계면 장무로 241,35.7327593,127.5830941,대표품목 :김치찌개<가격 :6000<영업시간 :11:00~22:00,착한가격업소
212,다미식당,장수읍 싸리재로 16,35.6488679,127.5205667,대표품목 :골뱅이무침<가격 :10000<영업시간 :08:00~21:00,착한가격업소
213,해송,장수읍 장천로 125,35.6435264,127.516967,대표품목 :알탕<가격 :7000<영업시간 :11:30~20:00,착한가격업소
214,행복한농부,장수읍 장천로 159,35.6464622,127.5179813,대표품목 :김치찌개<가격 :7000<영업시간 :12:00~21:00,착한가격업소
215,백호,장계면 백화로 8,35.727754,127.5844061,대표품목 :등심(500g)<가격 :60000<영업시간 :11:00~21:00,착한가격업소
216,덕순네돈까스,장계면 장무로 239,35.7325211,127.5830687,대표품목 :돈까스<가격 :7000<영업시간 :11:00~21:00,착한가격업소
217,소풍,번암면 지지로 97-21,35.5406017,127.542555,대표품목 :들깨칼국수<가격 :6000<영업시간 :11:00~21:00,착한가격업소
218,대영회관,임실군 오수면 오수로 136-10,35.5383257,127.3297176,대표품목 :돈가스<가격 :6000<영업시간 :11:30~21:00<부가설명 :저렴한 가격에 크기도 크고 맛있는 돈가스를 먹을수 있음/주인아주머니가 친절하고 식당이 깨끗함,착한가격업소
219,길손식당,임실군 오수면 오수로 177,35.539913,127.3262636,"대표품목 :김치찌개<가격 :7000<영업시간 :06:00~21:00<부가설명 :리모델링으로 깨끗하고 신선한 재료를 이용, 맛이 좋아 단골고객이 많음",착한가격업소
220,전원식당,전북 임실군 오수면 오수리 540-1,35.5417662,127.3257406,"대표품목 :삼겹살(200g)<가격 :11000<영업시간 :11:00~21:00<부가설명 :식자재를 인근농장에서 직접구매하며, 음식이 정갈함",착한가격업소
221,행운집,임실군 강진면 호국로 14-12,35.5290683,127.1610424,대표품목 :잔치국수<가격 :4000<영업시간 :11:00~19:00<부가설명 :강진시장 내 유명하고 저렴한 국수집/방송에도 여러 차례 나옴,착한가격업소
222,이웃사촌보리밥,임실군 임실읍 운수로 26 임실시장 내,35.614451,127.282711,대표품목 :보리밥<가격 :7000<영업시간 :11:00~20:00<부가설명 :임실시장내 맛깔스런 보리밥집으로 주인아주머니가 친절함. 깨끗하고 정갈한 밑반찬으로 단골고객이 많음,착한가격업소
223,모녀팥죽,임실군 임실읍 운수로 26 임실시장 내,35.614451,127.282711,대표품목 :잔치국수<가격 :4000<영업시간 :11:00~20:00<부가설명 :임실시장 내 유명한 국수집/깔끔한 밑반찬과 맛있는 국수로 단골고객이 많음,착한가격업소
224,황제반점,임실군 오수면 오수5길 10-1,35.537492,127.327209,"대표품목 :짜장면<가격 :4000<영업시간 :11:00~21:00<부가설명 :업소 평균가격보다 1천원정도 저렴하며, 깔끔하고 아기자기한 내부. 맛도 좋아서 인기 있는 중식집임",착한가격업소
225,나루터,임실군 운암면 임운로 1916,35.6617276,127.1571856,"대표품목 :백반<가격 :6000<영업시간 :10:00~22:00<부가설명 :리모델링으로 깨끗하고 신선한 재료를 이용, 맛이 좋아 단골고객이 많음",착한가격업소
226,전주식당,임실군 운암면 임운로 1875-4,35.659172,127.1600284,"대표품목 :매운탕(中)<가격 :40000<영업시간 :10:00~22:00<부가설명 :리모델링으로 깨끗하고 신선한 재료를 이용, 맛이 좋아 단골고객이 많음",착한가격업소
227,할매국수,임실군 강진면 호국로 14-12,35.5290683,127.1610424,"대표품목 :잔치국수<가격 :4000<영업시간 :11:00~19:00<부가설명 :강진시장 내 유명하고 저렴한 국수집, 방송에도 여러 차례 나옴",착한가격업소
228,임실면옥,임실군 임실읍 봉황로 150,35.6138699,127.2795682,대표품목 :칼국수<가격 :6000<영업시간 :10:00~20:00,착한가격업소
229,치즈앤돈까스,임실군 임실읍 운수로 26 임실시장 내,35.614451,127.282711,대표품목 :등심돈까스<가격 :7000<영업시간 :10:00~22:00<부가설명 :가게 내부가 깨끗하고 신선한 재료료 직접 만든 수제 돈까스로 남녀노소 누구나 즐길 수 있음,착한가격업소
230,막창 구이구이,임실군 임실읍 수정로 46-13,35.616831,127.2894372,대표품목 :백반<가격 :6000<영업시간 :10:00~22:00<부가설명 :신선한 재료를 사용하여 맛도 좋고 가격도 착하여 고객만족도 높음,착한가격업소
231,오늘의행복,임실군 임실읍 중동로 38,35.6122286,127.2819008,"대표품목 :삼겹살(600g)<가격 :30000<영업시간 :11:00~22:00<부가설명 :깔끔한 내부시설과 신선한 식재료, 성격 좋고 서비스 좋은 사장님으로 소문이 나 단골이 많음",착한가격업소
232,정가네만두,임실군 관촌면 사선6길 8,35.674815,127.2706858,대표품목 :돌솥비빔밥<가격 :6000<영업시간 :10:00~20:00<부가설명 :신선한 재료를 사용하여 맛도 좋고 가격도 착하여 고객만족도 높음,착한가격업소
233,슬치백산휴게소,임실군 관촌면 춘향로 3732,35.6910783,127.2540513,대표품목 :동충하초버섯전골(中)<가격 :40000<영업시간 :06:00~21:00<부가설명 :국도17호 주변에 위치하여 입맛이 까다로운 기사분들이 자주 찾고 있는 업소로 맛도 위생도 매우 좋음.,착한가격업소
234,형제반점,임실군 오수면 오수로 185,35.5406685,127.3259119,대표품목 :짜장면<가격 :4000<영업시간 :06:00~21:00<부가설명 : 짜장면 가격이 착하고 물가상승 속에서도 3년 이상 가격동결로 물가안정에 기여.,착한가격업소
235,모아식당,순창읍 순창11길 18-4,35.3782119,127.1419437,"대표품목 :손수제, 보리밥<가격 :7000<영업시간 :10:00~22:00<부가설명 :가격 저렴, 위생적, 가족 운영",착한가격업소
236,가마솥,순창읍 순창로 205-9,35.3738088,127.1421253,"대표품목 :추어탕<가격 :8000<영업시간 :10:00~22:00<부가설명 :30년전통, 변함없는 맛과 정성, 가족운영",착한가격업소
237,본때감자탕,순창읍 순창로 263,35.3786243,127.1433029,대표품목 :뼈해장국<가격 :7000<영업시간 :10:00~22:00<부가설명 :지역 농산물을 이용하고 직접 신선한 재료를 구입,착한가격업소
238,텃밭,순창읍 장류로 401-3,35.3762846,127.1458521,"대표품목 :불고기쌈밥<가격 :8000<영업시간 :09:00~21:00<부가설명 :우리지역 농산물 이용, 가족운영",착한가격업소
239,박가네한우사랑,고창읍 중앙로 200,35.4349818,126.6974584,대표품목 :갈비탕<가격 :7000<부가설명 :질좋은 고기를 저렴하게 판매하며 생고기비빔밥 등 점심특선메뉴제공/매년 착한가격업소 봉사활동에 참여함,착한가격업소
240,정오식당,고수면 고수로 7,35.4088914,126.6784035,대표품목 :백반<가격 :6000<부가설명 :독거노인 반찬제공등 봉사활동을 꾸준히 추진,착한가격업소
241,제일식당,아산면 녹두로 805,35.4402929,126.6369012,대표품목 :백반<가격 :5000<부가설명 :주요부식 직접재배하여 사용,착한가격업소
242,수정분식,무장면 무장읍성길 4-7,35.4154912,126.5609197,대표품목 :백반<가격 :5000<부가설명 :국내산 팥만을 사용하여 진하고 맛이좋아 호응이 좋음,착한가격업소
243,단골식당,상하면 상하1길 8,35.443845,126.4916634,"대표품목 :자장면<가격 :4000<부가설명 :부부운영으로 인건비를 절약하며, 숙련된 솜씨로 질좋은 서비스 제공",착한가격업소
244,남원추어탕,흥덕면 흥덕시장길 4,35.5205971,126.7007246,"대표품목 :추어탕<가격 :7000<부가설명 :부부가 운영하여 인건비를 절약하고, 주요부식을 직접재배하여 사용하며, 김치등을 직접 담금으로 원가절감",착한가격업소
245,미향식당,고창읍 모양성로 24,35.4341411,126.7025271,대표품목 :새싹비빔밥<가격 :7000<부가설명 :본인소유 건물로 원가를 절감하며 고창읍성 앞에 위치하여 관광객에게 저렴한 가격으로 우수한 품질 및 서비스 제공/모든재료 국내산사용하며 김치등 직접 담금,착한가격업소
246,전주식토속콩나물해장국,고창읍 중앙로 274,35.434794,126.7055247,"대표품목 :시래기국밥<가격 :6000<부가설명 :배추, 무등 식재료 직접 재배하여 사용하여 맛이좋고, 새벽6시부터 단골손님이 많음/매년 착한가격업소 봉사활동에 참여함",착한가격업소
247,두레반,고창읍 남정5길 5,35.4337501,126.6998224,대표품목 :생선구이백반<가격 :7000<부가설명 :좋은 재료와 정성스런 반친이 깨끗하고 신선함/매년 착한가격업소 봉사활동에 참여함,착한가격업소
248,토속집,고창읍 읍내리 654-1,35.4361613,126.6967275,대표품목 :백반<가격 :5000<부가설명 :터미널뒤에 위치하여 세끼식사를 모두 이용하는분이 많아 저렴한 가격 유지/매년 착한가격업소 봉사활동에 참여함,착한가격업소
249,터식육점,무장남북로 14,35.4159021,126.5614321,대표품목 :삼겹살(200g)<가격 :10000<부가설명 :매일 신선한 고기를 자가정육점에서 공수하여 사용하고 모든재료 국내산으로만 사용/매년 착한가격업소 봉사활동에 참여함,착한가격업소
250,무장회관,무장면 학천로 8,35.4143146,126.5619588,대표품목 :백반<가격 :5000<부가설명 :주요부식 직접재배/매년 착한가격업소 봉사활동에 참여함,착한가격업소
251,창평명가,고창읍 남정6길 30-1,35.4316596,126.6987375,대표품목 :순대국밥<가격 :6000<부가설명 :고객에게 콩나물 무한 리필,착한가격업소
252,신토불이,흥덕면 서이길 1-2,35.5193195,126.6989549,대표품목 :바지락칼국수<가격 :5000<부가설명 :저렴한 가격과 신선한재료를 이용한 단골 고객이 많음,착한가격업소
253,선운산숯불갈비,무장면 무장리 59-5,35.4142547,126.5610209,대표품목 :오리소금구이<가격 :8000<부가설명 :장날 백반 5000원 제공/인근 중고등학생 식사류 1000원 할인,착한가격업소
254,옥돌식당,무장면 무장리 114-2,35.4164759,126.5609327,대표품목 :삼겹살(200g)<가격 :10000<부가설명 :저렴한 가격과 신선한재료를 이용한 단골 고객이 많음/매년 착한가격업소 봉사활동에 참여함,착한가격업소
255,대산식당,대산면 대성로 284,35.3409032,126.6045392,대표품목 :백반<가격 :6000<부가설명 :저렴한 가격과 신선한재료를 이용한 단골 고객이 많음,착한가격업소
256,천안문,고창읍 남정10길 9,35.4338588,126.6980458,대표품목 :자장면<가격 :3500<부가설명 :저렴한 가격으로 한끼 식사 제공/매년 착한가격업소 봉사활동에 참여함,착한가격업소
257,명성회관,무장면 무장남북로 10-7,35.41574,126.562014,대표품목 :백반<가격 :6000<부가설명 :저렴한 가격과 친절한 서비스 제공/매년 착한가격업소 봉사활동에 참여함,착한가격업소
258,덕장진땡이,고창읍 월곡로 45,35.4357562,126.7107779,대표품목 :코다리정식<가격 :8000<부가설명 :본인소유건물로 원가절감 및 친절한 서비스 제공 /주기적으로 봉사활동에 참여함,착한가격업소
259,유정낙지마을,고창읍 월곡리 725,35.4362378,126.7131669,대표품목 :산낙지볶음(중)<가격 :35000<부가설명 :사회적약자에게 꾸준한 무료 음식제공,착한가격업소
260,군산식당,변산면 격포항길 16,35.6242551,126.4711603,대표품목 :백반<가격 :8000<영업시간 :08:00~19:00<부가설명 :지역의 특산물(신선한 재료)을 이용하여 맛을 내고 있음,착한가격업소
261,아리울한우명품관,부안읍 번영로 124,35.7259133,126.7338696,대표품목 :한우사골곰탕<가격 :7000<영업시간 :09:00~22:00<부가설명 :점심메뉴 특선제를 운영하므로 맛도 좋고 가격이 저렴하여 손님이 많이 이용함,착한가격업소
262,골목식당,주산면 선돌로 358,35.6736763,126.7118966,대표품목 :백반<가격 :7000<영업시간 :12:00~15:00<부가설명 :30년 이상 같은 자리에서 단골 위주로 장사하고 있으며 밥이나 반찬은 무한리필 하므로 고객 만족높음,착한가격업소
263,오뚜기회관,부안읍 부풍로 7,35.7305104,126.7331672,대표품목 :가정식백반<가격 :6000<영업시간 :10:00~18:00<부가설명 :맛이 좋고 서비스가 좋아서 홍보가 잘되고 있음,착한가격업소
264,부안기사님식당,부안읍 번영로 174-3,35.7268556,126.7395057,대표품목 :가정식백반<가격 :7000<영업시간 :06:00~14:00<부가설명 :터미널 부근에 위치하여 기사님들이 많이 찾으며 깨끗하고 친절한 가게임,착한가격업소
265,다미락,부안읍 수정길 7,35.7239635,126.7350822,"대표품목 :초밥<가격 :6000<영업시간 :11:00~19:00<부가설명 :20년이상 단골위주 장사, 친절하고 맛이좋아서 고객들의 만족감이 높음",착한가격업소
266,장터구이,부안읍 봉동길 17,35.7212279,126.7347221,대표품목 :뷔페식백반<가격 :6000<영업시간 :11:00~19:00<부가설명 :뷔페식 식당으로 반찬이 다양하고 신선하고 맛과 청결을 최우선으로 하는 식당,착한가격업소
267,소문난 해장국,부안읍 동중2길 15,35.7289728,126.7367272,대표품목 :우거지갈비탕<가격 :7000<영업시간 :06:00~21:00<부가설명 :저렴한 가격과 좋은 재료로 맛이 좋아 손님이 많음,착한가격업소
268,아트카페,부안읍 수정길 28,35.7257673,126.7354459,대표품목 :커피<가격 :3000<영업시간 :09:00~23:00<부가설명 :직접 양봉하여 채취한꿀을 사용하고 음악과 예술이 함께하는 카페,착한가격업소
269,이백가든,백산면 임현로 21,35.7068423,126.7880615,"대표품목 :순두부찌개<가격 :6000<영업시간 :10:00~21:00<부가설명 :쌀, 채소, 양념, 고추가루를 직접 농사지여 사용함",착한가격업소
270,동원반점,하서면 신지길 30-2,35.7177246,126.6625325,대표품목 :짜장면<가격 :4000<영업시간 :11:00~18:00<부가설명 :주변의 사람들에게 좋은 이미지로 친절하고 맛이 있음,착한가격업소
271,부안초밥,부안읍 부풍로 57,35.7260158,126.7323205,"대표품목 :유부초밥<가격 :7000<영업시간 :11:00~20:00<부가설명 :식약처 위생등급 실시 양호, 전국에서 맛이 좋아 애용",착한가격업소
272,땅제가든,보안면 청자로 1399,35.6097502,126.6421197,대표품목 :참게장정식<가격 :10000<영업시간 :10:00~21:00<부가설명 :참게장 정식(음식맛이 아주 좋음)이 입소문이 좋음,착한가격업소
273,동그라미 가든,변산면 변산로 1938,35.6873246,126.5355294,대표품목 :칼국수<가격 :8000<영업시간 :08:00~20:00<부가설명 :13년이상 같은 자리에 위치하여서 단골손님이 많고 가격 동결로 만족감이 높음,착한가격업소
274,삼한지,줄포면 줄포중앙로 83,35.5933504,126.6793555,대표품목 :백반<가격 :7000<영업시간 :11:00~21:00<부가설명 :밑반찬 재료는 인근 농가에서 직접 구입하여 사용함,착한가격업소
275,그곳에 가면,위도면 위도로 703,35.5897931,126.2712775,대표품목 :자연산회<가격 :30000<영업시간 :08:00~20:00<부가설명 :위도라는 섬위 위치하고 있어 바다에서 직접 잡은 수산물을 활용하여 영업함,착한가격업소
276,광수한우정육식당,부안읍 진성길 10,35.7241834,126.7389004,대표품목 :소머리국밥<가격 :8000<영업시간 :09:00~21:00<부가설명 :국내산 한우만 사용하므로 맛이 좋음,착한가격업소
277,이모네,부안읍 시장1길 5-1,35.7269183,126.7347603,대표품목 :동태탕<가격 :7000<영업시간 :09:00~22:00<부가설명 :맛이 졸고 서비스가 좋아 홍보가 잘됨,착한가격업소
278,황제갈비,변산면 격포로 183,35.6255459,126.4729247,대표품목 :돌솥밥<가격 :7000<영업시간 :09:00~20:00<부가설명 :10년 경력으로 밖에 조경이나 분위기가 타업소와 달리하다 보니 손님들의 반응이 좋고 손님들이 홍보도 많이 해줌,착한가격업소
279,고향식당,동진면 동진로 129,35.7518921,126.741946,대표품목 :팥죽<가격 :4000<영업시간 :09:00~22:00<부가설명 :29년이상 같은 자리에서 단골위주 장사 친철과 가격동결로 고객유지,착한가격업소
280,보람이네,변산면 격포항길 15,35.6240933,126.4712437,대표품목 :소고기육개장<가격 :8000<영업시간 :09:00~20:00<부가설명 :신선한 재료를 쓰는 것으로 주변에 입소문이 자자함,착한가격업소
281,아줌마 국수 돈까스,부안읍 시장길 18,35.7271965,126.7341844,대표품목 :국수<가격 :3000<영업시간 :09:00~20:00<부가설명 :최고의 맛과 저렴한 가격을 겸비한 친절한 식당,착한가격업소
282,계화도 바지락죽,변산면 변산해변로 46,35.6312906,126.4717264,대표품목 :바지락죽<,착한가격업소
283,곰소꽃게장,진서면 청자로 1217,35.6060109,126.6244228,대표품목 :꽃게장<,착한가격업소
466,(주)이마트24(전주덕진구),서울특별시 성동구 성수동 2가 281-4 푸조비즈타워,37.5478776,127.0643278,관할기관 : 덕진구<,아동급식카드
467,궁전회관,전라북도 전주시 덕진구 건산로 42 (진북동),35.8329945,127.1418127,관할기관 : 진북동<,아동급식카드
468,얌스 진북우성점,"전라북도 전주시 덕진구 벚꽃로 57 (진북동, 우성아파트상가)",35.82985,127.1357375,관할기관 : 진북동<,아동급식카드
469,태종마트,전라북도 전주시 덕진구 벚꽃로 9 (진북동),35.8286689,127.1307073,관할기관 : 진북동<,아동급식카드
470,"CU (구,훼미리마트)(고시점)",전라북도 덕진구 진북동,35.827789,127.131493,관할기관 : 진북동<,아동급식카드
471,다희네분식,전라북도 전주시 덕진구 공북로 25 (진북동),35.8254859,127.1347711,관할기관 : 진북동<,아동급식카드
472,본죽 전주덕진구청점,전라북도 전주시 덕진구 태진로 108 (진북동),35.8307224,127.1361373,관할기관 : 진북동<,아동급식카드
473,산내들,전라북도 전주시 덕진구 건산로 42 (진북동),35.8329945,127.1418127,관할기관 : 진북동<,아동급식카드
474,롯데리아전주인후점,전라북도 전주시 덕진구 안덕원로 237 (인후동1가),35.8366764,127.1529729,관할기관 : 인후1동<,아동급식카드
475,중식당 진가,전라북도 전주시 덕진구 팽나무4길 19 (인후동1가),35.8348883,127.1547463,관할기관 : 인후1동<,아동급식카드
476,한신플러스마트,전라북도 전주시 덕진구 심방죽1길 21-2 (인후동1가),35.8370396,127.1531192,관할기관 : 인후1동<,아동급식카드
477,돼지저금통,전라북도 전주시 덕진구 팽나무4길 10,35.8357145,127.1543135,관할기관 : 인후1동<,아동급식카드
478,"CU (구,훼미리마트)(안골삼성점)",전라북도 덕진구 인후동,35.831342,127.157989,관할기관 : 인후1동<,아동급식카드
479,한신플러스마트 1호점(정육),전라북도 전주시 덕진구 심방죽1길 21-2 (인후동1가),35.8370396,127.1531192,관할기관 : 인후1동<,아동급식카드
480,봉구스밥버거안골점,전라북도 전주시 덕진구 심방죽2길 32 (인후동1가),35.8368779,127.1535544,관할기관 : 인후1동<,아동급식카드
481,본죽 전주안골점,전라북도 전주시 덕진구 안덕원로 263 (인후동1가),35.8369547,127.1557468,관할기관 : 인후1동<,아동급식카드
482,파리바게뜨 전주모래내점,전라북도 전주시 덕진구 안덕원로 168 (인후동2가),35.8335587,127.1462842,관할기관 : 인후2동<,아동급식카드
483,본죽&비빔밥 전주대자인병원점,전라북도 전주시 덕진구 견훤로 379 (인후동2가),35.8449694,127.15305,관할기관 : 인후2동<비고 :*배달비 별도,아동급식카드
484,마시루,"전라북도 전주시 덕진구 명주5길 11 (인후동2가, 성락콤비아파트쇼핑타운)",35.8451071,127.1512375,관할기관 : 인후2동<,아동급식카드
485,아띠,"전라북도 전주시 덕진구 명주5길 11 (인후동2가, 성락콤비아파트쇼핑타운)",35.8451071,127.1512375,"관할기관 : 인후2동<비고 :*10,000원이상 배달가능",아동급식카드
486,소희네분식,전라북도 전주시 덕진구 모래내6길 5-4,35.834139,127.1457918,관할기관 : 인후2동<,아동급식카드
487,"부어치킨,죠피자",전라북도 전주시 덕진구 안덕원로 151,35.8328798,127.144674,관할기관 : 인후2동<,아동급식카드
488,성락분식,전라북도 전주시 덕진구 명주5길 11,35.8451071,127.1512375,관할기관 : 인후2동<,아동급식카드
489,봄봄,전라북도 전주시 덕진구 모래내6길 12 (인후동2가),35.8348918,127.1458451,관할기관 : 인후2동<,아동급식카드
490,파리바게뜨전주우아점,전라북도 전주시 덕진구 건산로 260 (인후동1가),35.8349217,127.1654329,관할기관 : 인후3동<,아동급식카드
491,얌스아중점,"전라북도 전주시 덕진구 건산로 255 (인후동1가, 롯데슈퍼)",35.835505,127.1647796,관할기관 : 인후3동<,아동급식카드
492,신 김우동,"전라북도 전주시 덕진구 석소로 31 (인후동1가, 아중제일아파트)",35.8300902,127.1687247,관할기관 : 인후3동<,아동급식카드
493,김밥집불났네,전라북도 전주시 덕진구 무삼지로 21,35.8277667,127.1651265,관할기관 : 인후3동<,아동급식카드
494,큰집닭강정아중점,전라북도 전주시 덕진구 무삼지로 21 (인후동1가),35.8277667,127.1651265,관할기관 : 인후3동<,아동급식카드
495,피자스쿨 아중점,전라북도 전주시 덕진구 무삼지로 21 (인후동1가),35.8277667,127.1651265,관할기관 : 인후3동<,아동급식카드
496,롯데리아 아중점,전라북도 전주시 덕진구 무삼지로 66,35.8315161,127.1634274,관할기관 : 인후3동<,아동급식카드
497,김우동,"전라북도 전주시 덕진구 석소로 27 (인후동1가, 아중제일아파트)",35.8297279,127.1689202,관할기관 : 인후3동<,아동급식카드
498,피자애 아중점,전라북도 전주시 덕진구 석소로 20 (우아동2가),35.8292195,127.1695591,관할기관 : 인후3동<,아동급식카드
499,참마트,"전라북도 전주시 덕진구 동가재미2길 51 (인후동1가, 뉴참마트)",35.8346405,127.1659034,관할기관 : 인후3동<,아동급식카드
500,감탄아중점,"전라북도 전주시 덕진구 석소로 29 (인후동1가, 아중제일아파트)",35.82979,127.1679407,관할기관 : 인후3동<,아동급식카드
501,봉구스밥버거 아중점,전라북도 전주시 덕진구 무삼지로 53-1 (인후동1가),35.8303614,127.1634671,관할기관 : 인후3동<,아동급식카드
502,챔프김밥,"전라북도 전주시 덕진구 무삼지로 80 (인후동1가, 이태관내과)",35.8326375,127.1631656,관할기관 : 인후3동<,아동급식카드
503,죠피자 아중점,"전라북도 전주시 덕진구 석소로 27 (인후동1가, 아중제일아파트)",35.8297279,127.1689202,관할기관 : 인후3동<,아동급식카드
504,"CU (구,훼미리마트)(아중대우점)",전라북도 덕진구 인후동,35.831342,127.157989,관할기관 : 인후3동<,아동급식카드
505,"CU (구,훼미리마트)(인후부영점)",전라북도 덕진구 인후동,35.831342,127.157989,관할기관 : 인후3동<,아동급식카드
506,본 죽&비빔밥 전주아중점,"전라북도 전주시 덕진구 무삼지로 80 (인후동1가, 이태관내과)",35.8326375,127.1631656,관할기관 : 인후3동<,아동급식카드
507,굿마트,전라북도 전주시 덕진구 한배미로 6,35.8255061,127.1660609,관할기관 : 인후3동<,아동급식카드
508,"CU (구,훼미리마트)(전주아중점)",전라북도 덕진구 인후동,35.831342,127.157989,관할기관 : 인후3동<,아동급식카드
509,캠토 우아점,전라북도 전주시 덕진구 석소로 22,35.8293567,127.1695169,관할기관 : 인후3동<,아동급식카드
510,파리바게뜨 전주인후점,전라북도 전주시 덕진구 아중로 155 (인후동1가),35.8264823,127.1665544,관할기관 : 인후3동<,아동급식카드
511,홈마트,전라북도 전주시 덕진구 가재미3길 15,35.8286682,127.1606611,관할기관 : 인후3동<,아동급식카드
512,토목수,전라북도 전주시 덕진구 구총목로 31,35.8285167,127.1634309,관할기관 : 인후3동<,아동급식카드
513,파리바게뜨 전주아중점,"전라북도 전주시 덕진구 석소로 31 (인후동1가, 아중제일아파트)",35.8300902,127.1687247,관할기관 : 인후3동<,아동급식카드
514,얌스 아중현대점,"전라북도 전주시 덕진구 석소로 29 (인후동1가, 아중제일아파트)",35.82979,127.1679407,관할기관 : 인후3동<,아동급식카드
515,재단법인 전주푸드 통합지원센터(휴게음식점),"전라북도 전주시 덕진구 기린대로 451 (덕진동1가, 전주종합경기장)",35.8389977,127.1263112,관할기관 : 덕진동<,아동급식카드
516,롯데리아전주하가디아이점,전라북도 전주시 덕진구 가련산로 30 (덕진동2가),35.8419232,127.1118169,관할기관 : 덕진동<,아동급식카드
517,샌앤잼,전라북도 전주시 덕진구 경동로 38 (덕진동2가),35.8430547,127.1103417,관할기관 : 덕진동<,아동급식카드
518,파리바게트 전북대점,전라북도 전주시 덕진구 명륜4길 19 (덕진동1가),35.8436626,127.1268772,관할기관 : 덕진동<,아동급식카드
519,피자스쿨하가지구점,전라북도 전주시 덕진구 가련산로 17 (덕진동2가),35.8416476,127.1106143,관할기관 : 덕진동<,아동급식카드
520,홈마트,"전라북도 전주시 덕진구 기린대로 479 (덕진동1가, 전주농협덕진지점)",35.8422063,127.1251565,관할기관 : 덕진동<,아동급식카드
521,"CU (구,훼미리마트)(전북대공대점)",전라북도 덕진구 덕진동,35.845382,127.120668,관할기관 : 덕진동<,아동급식카드
522,"CU (구,훼미리마트)(전북대학습관점)",전라북도 덕진구 덕진동,35.845382,127.120668,관할기관 : 덕진동<,아동급식카드
523,"CU (구,훼미리마트)(전북대학생회관점)",전라북도 덕진구 덕진동,35.845382,127.120668,관할기관 : 덕진동<,아동급식카드
524,본죽&비빔밥 전북대점,전라북도 전주시 덕진구 권삼득로 333 (덕진동1가),35.8449363,127.1258928,관할기관 : 덕진동<,아동급식카드
525,한솥도시락 전북대정문점,전라북도 전주시 덕진구 명륜5길 20 (덕진동1가),35.8443569,127.1261524,관할기관 : 덕진동<,아동급식카드
526,전북대알쌈닭,전라북도 전주시 덕진구 명륜4길 14 (덕진동1가),35.8431243,127.1268781,관할기관 : 덕진동<,아동급식카드
527,"CU (구,훼미리마트)(덕진경기장점)",전라북도 덕진구 덕진동,35.845382,127.120668,관할기관 : 덕진동<,아동급식카드
528,"CU (구,훼미리마트)(전주행복점)",전라북도 덕진구 덕진동,35.845382,127.120668,관할기관 : 덕진동<,아동급식카드
529,오성슈퍼,"전라북도 전주시 덕진구 호반8길 13-4 (덕진동2가, 오성유토피아아파트)",35.8520948,127.1158378,관할기관 : 덕진동<,아동급식카드
530,봉구스밥버거 전북대점,전라북도 전주시 덕진구 명륜4길 21-6 (덕진동1가),35.8442058,127.1264364,관할기관 : 덕진동<,아동급식카드
531,롯데리아 전북대점,전라북도 전주시 덕진구 명륜4길 17 (덕진동1가),35.8434587,127.1265534,관할기관 : 덕진동<,아동급식카드
532,마트유,전라북도 전주시 덕진구 하가1길 15,35.8473884,127.1153487,관할기관 : 덕진동<,아동급식카드
533,브래드#,전라북도 전주시 덕진구 경동로 34 (덕진동2가),35.843031,127.1099408,관할기관 : 덕진동<,아동급식카드
534,롯데리아,전라북도 전주시 덕진구 가련산로 30 (덕진동2가),35.8419232,127.1118169,관할기관 : 덕진동<,아동급식카드
535,본죽&비빔밥 전주하가점,"전라북도 전주시 덕진구 가련산로 6 (덕진동2가, 예담빌딩)",35.8404565,127.1102754,관할기관 : 덕진동<,아동급식카드
536,네네앤봉구스 전북대덕진점,전라북도 전주시 덕진구 사평로 43 (덕진동1가),35.8414546,127.1212138,관할기관 : 덕진동<,아동급식카드
537,대성고기백화점,"전라북도 전주시 덕진구 태진로 137-4 (금암동, 운장야학)",35.8333819,127.1349146,관할기관 : 금암1동<,아동급식카드
538,파리바게뜨 전주남도점,전라북도 전주시 덕진구 기린대로 400 (금암동),35.8379773,127.1320949,관할기관 : 금암1동<,아동급식카드
539,바른카츠,전라북도 전주시 덕진구 삼송5길 14-23 (금암동),35.8437517,127.1381405,관할기관 : 금암1동<,아동급식카드
540,본설렁탕 전주금암점,전라북도 전주시 덕진구 전주천동로 492 (금암동),35.8361982,127.1304484,관할기관 : 금암1동<,아동급식카드
541,슈퍼.Super,전라북도 전주시 덕진구 전주천동로 493 (금암동),35.8366093,127.1301997,관할기관 : 금암1동<,아동급식카드
542,롯데리아 전주터미널,전라북도 전주시 덕진구 가리내로 21 (금암동),35.8340442,127.1336066,"관할기관 : 금암1동<비고 :*홀16:00~18:00, 포장16:00~21:00",아동급식카드
543,금암면옥,전라북도 전주시 덕진구 기린대로 400-3 (금암동),35.8380631,127.1322877,관할기관 : 금암1동<,아동급식카드
544,"CU (구,훼미리마트)(전주금암점)",전라북도 덕진구 금암동,35.837424,127.133088,관할기관 : 금암1동<,아동급식카드
545,신김밥천국,전라북도 전주시 덕진구 조경단로 107 (금암동),35.8438351,127.1383503,관할기관 : 금암1동<,아동급식카드
546,용반점,전라북도 전주시 덕진구 삼송3길 47 (금암동),35.8438591,127.1376797,관할기관 : 금암1동<,아동급식카드
547,왕양념숯불소갈비살,전라북도 전주시 덕진구 기린대로 400-27 (금암동),35.8383198,127.1325604,관할기관 : 금암1동<,아동급식카드
548,본도시락 전북대점,전라북도 전주시 덕진구 조경단로 83 (금암동),35.8417771,127.1387783,관할기관 : 금암1동<,아동급식카드
549,또또분식,전라북도 전주시 덕진구 삼송3길 14 (금암동),35.8424125,127.1354486,관할기관 : 금암1동<,아동급식카드
550,본죽 전주금암점,"전라북도 전주시 덕진구 백제대로 649 (금암동, 본죽)",35.8432814,127.14022,관할기관 : 금암2동<,아동급식카드
551,태평마트,전라북도 전주시 덕진구 거북바우3길 3 (금암동),35.8385565,127.1384532,관할기관 : 금암2동<,아동급식카드
552,성원마트,전라북도 전주시 덕진구 팔복로 26 (팔복동2가),35.8484962,127.1027653,관할기관 : 팔복동<,아동급식카드
553,"CU (구,훼미리마트)(공단대로점)",전라북도 덕진구 팔복동,35.853657,127.106313,관할기관 : 팔복동<,아동급식카드
554,김밥천국,전라북도 전주시 덕진구 기린대로 690,35.8533287,127.1062816,관할기관 : 팔복동<,아동급식카드
555,정무문,전라북도 전주시 덕진구 신복5길 9,35.8538913,127.1058236,관할기관 : 팔복동<,아동급식카드
556,진보마트,전라북도 전주시 덕진구 신복1길 46,35.8532727,127.106846,관할기관 : 팔복동<,아동급식카드
557,다마트,전라북도 전주시 덕진구 신복5길 18,35.8547445,127.1065695,관할기관 : 팔복동<,아동급식카드
558,원마트,전라북도 전주시 덕진구 기린대로 679,35.8523524,127.106911,관할기관 : 팔복동<,아동급식카드
559,잇츠브레드,전라북도 전주시 덕진구 기린대로 693 (팔복동2가),35.8529976,127.1056404,관할기관 : 팔복동<,아동급식카드
560,파리바게뜨전주팔복점,전라북도 전주시 덕진구 기린대로 695 (팔복동2가),35.8531077,127.1055058,관할기관 : 팔복동<,아동급식카드
561,롯데리아 홈플러스전주,"전라북도 전주시 덕진구 백제대로 771 (우아동3가, 홈플러스)",35.8475464,127.1528909,관할기관 : 우아1동<,아동급식카드
562,레드에플 전주점,전라북도 전주시 덕진구 견훤로 491,35.854467,127.1550963,관할기관 : 우아1동<,아동급식카드
563,맛나손수제비,전라북도 전주시 덕진구 우아9길 10 (우아동3가),35.851036,127.1568099,관할기관 : 우아1동<,아동급식카드
564,두레박회관,전라북도 전주시 덕진구 동부대로 685,35.8496961,127.1598109,관할기관 : 우아1동<,아동급식카드
565,튀김짱김밥,전라북도 전주시 덕진구 견훤로 505,35.8554176,127.1556935,관할기관 : 우아1동<,아동급식카드
566,"CU (구,훼미리마트)(전주우아점)",전라북도 덕진구 우아동,35.817,127.2001,관할기관 : 우아1동<,아동급식카드
567,본죽&비빔밥 전주고려병원점,전라북도 전주시 덕진구 안덕원로 373 (산정동),35.8396138,127.1673623,관할기관 : 우아2동<,아동급식카드
568,청혜참치,전라북도 전주시 덕진구 인교9길 27-2 (우아동1가),35.8260038,127.1760273,관할기관 : 우아2동<,아동급식카드
569,걸작떡볶이 아중점,전라북도 전주시 덕진구 석소로 18 (우아동2가),35.8290223,127.1696998,관할기관 : 우아2동<,아동급식카드
570,한솔아중점,전라북도 전주시 덕진구 석소로 18 (우아동2가),35.8290223,127.1696998,관할기관 : 우아2동<,아동급식카드
571,"CU (구,훼미리마트)(전주고려병원점)",전라북도 덕진구 산정동,35.8425,127.1725,관할기관 : 우아2동<,아동급식카드
572,본김밥카페,"전라북도 전주시 덕진구 소리로 181 (호성동1가, 호성주공아파트)",35.8579082,127.1520169,관할기관 : 호성동<,아동급식카드
573,파리바게뜨호성점,전라북도 전주시 덕진구 소리로 192 (호성동1가),35.8579023,127.1530395,관할기관 : 호성동<,아동급식카드
574,김밥나라호성점,"전라북도 전주시 덕진구 호성1길 29 (호성동1가, 신동아1차아파트)",35.8560078,127.1540763,관할기관 : 호성동<,아동급식카드
575,오구본가 전주호성점,"전라북도 전주시 덕진구 호성로 134 (호성동1가, 희락교회)",35.8634563,127.1481891,관할기관 : 호성동<,아동급식카드
576,얌스호성점,전라북도 전주시 덕진구 호성3길 12 (호성동1가),35.861173,127.1511243,관할기관 : 호성동<,아동급식카드
577,또야김밥카페,"전라북도 전주시 덕진구 소리로 181 (호성동1가, 호성주공아파트)",35.8579082,127.1520169,관할기관 : 호성동<,아동급식카드
578,파리바게트더블진흥점,"전라북도 전주시 덕진구 동부대로 879 (호성동1가, 남촌빌딩)",35.864518,127.1488598,관할기관 : 호성동<,아동급식카드
579,감탄 호성점,"전라북도 전주시 덕진구 호성1길 32 (호성동1가, 호성 신동아 아파트)",35.8569459,127.1530527,관할기관 : 호성동<,아동급식카드
580,본죽 전주호성점,전라북도 전주시 덕진구 소리로 192 (호성동1가),35.8579023,127.1530395,관할기관 : 호성동<,아동급식카드
581,파리바게뜨 호성점,전라북도 전주시 덕진구 소리로 192,35.8579023,127.1530395,관할기관 : 호성동<,아동급식카드
582,네네앤봉구스 호성점,"전라북도 전주시 덕진구 소리로 198 (호성동1가, 꿈이있는교회)",35.8581326,127.1535443,관할기관 : 호성동<,아동급식카드
583,동서로마트,전라북도 전주시 덕진구 호성1길 33-10 (호성동1가),35.8561892,127.1526751,관할기관 : 호성동<,아동급식카드
584,롯데리아 롯데마트전주송천점,"전라북도 전주시 덕진구 송천중앙로 82 (송천동1가, 롯데마트 송천점)",35.8545505,127.1204594,관할기관 : 송천1동<,아동급식카드
585,본죽 전주송천점,전라북도 전주시 덕진구 송천중앙로 160 (송천동1가),35.8610268,127.1216631,관할기관 : 송천1동<,아동급식카드
586,롯데리아 전주송천점,전라북도 전주시 덕진구 솔내로 182 (송천동2가),35.8661056,127.1273754,관할기관 : 송천1동<,아동급식카드
587,본죽&비빔밥 전주에코시티점,전라북도 전주시 덕진구 세병2길 21 (송천동2가),35.872823,127.1263308,관할기관 : 송천1동<,아동급식카드
588,곱떡치떡앤찜꽁찜닭 송천에코점,전라북도 전주시 덕진구 오송로 15 (송천동1가),35.8599836,127.1279218,관할기관 : 송천1동<,아동급식카드
589,본도시락 전주송천에코시티점,"전라북도 전주시 덕진구 천마산로 100 (송천동1가, 진흥더블파크아파트)",35.8637618,127.1324059,관할기관 : 송천1동<,아동급식카드
590,"CU (구,훼미리마트)(송천주공점)",전라북도 덕진구 송천동,35.859349,127.125463,관할기관 : 송천1동<,아동급식카드
591,"CU (구,훼미리마트)(송천중앙점)",전라북도 덕진구 송천동,35.859349,127.125463,관할기관 : 송천1동<,아동급식카드
592,"CU (구,훼미리마트)(송천비사벌점)",전라북도 덕진구 송천동,35.859349,127.125463,관할기관 : 송천1동<,아동급식카드
593,김밥한끼,전라북도 전주시 덕진구 솔내7길 2 (송천동1가),35.8597553,127.1216531,관할기관 : 송천1동<,아동급식카드
594,롯데리아 전주에코점,전라북도 전주시 덕진구 세병남로 25,35.8720042,127.1272879,관할기관 : 송천1동<,아동급식카드
595,삼첩분식 송천점,전라북도 전주시 덕진구 송천로 112-9 (송천동1가),35.8630602,127.1167828,관할기관 : 송천2동<,아동급식카드
596,수제국돈,전라북도 전주시 덕진구 시천로 70-1 (송천동1가),35.8656248,127.1147048,관할기관 : 송천2동<,아동급식카드
597,맘스터치 송천점,전라북도 전주시 덕진구 시천로 46 (송천동1가),35.8633424,127.114802,관할기관 : 송천2동<,아동급식카드
598,한씨네반찬,전북 전주시 덕진구 송천동1가 825-12,35.8645582,127.1160768,관할기관 : 송천2동<,아동급식카드
599,본죽&비빔밥 전주솔내점,전라북도 전주시 덕진구 시천로 48 (송천동1가),35.8636379,127.1147288,관할기관 : 송천2동<,아동급식카드
600,신포우리만두송천용소점,전라북도 전주시 덕진구 시천로 50 (송천동1가),35.863828,127.1147025,관할기관 : 송천2동<,아동급식카드
601,왕김밥,전라북도 전주시 덕진구 송천2길 5,35.8597526,127.120582,관할기관 : 송천2동<,아동급식카드
602,왕김밥,전라북도 전주시 덕진구 송천2길 5 (송천동1가),35.8597526,127.120582,관할기관 : 송천2동<,아동급식카드
603,파리바게뜨 진주반월점,전라북도 전주시 덕진구 쪽구름로 125 (반월동),35.8738341,127.0715596,관할기관 : 조촌동<,아동급식카드
604,정스돈까스반월점,전라북도 전주시 덕진구 쪽구름로 121 (반월동),35.8737329,127.0718704,관할기관 : 조촌동<,아동급식카드
605,정돈까스 반월점,전라북도 전주시 덕진구 쪽구름로 121 (반월동),35.8737329,127.0718704,관할기관 : 조촌동<,아동급식카드
606,땅스부대찌개 반월점,전라북도 전주시 덕진구 쪽구름로 117 (반월동),35.8737845,127.0723945,관할기관 : 조촌동<,아동급식카드
607,본죽 전주동산점,전라북도 전주시 덕진구 쪽구름로 75 (반월동),35.8721121,127.0760059,관할기관 : 조촌동<,아동급식카드
608,삼오슈퍼,전라북도 전주시 덕진구 반월5길 8-12,35.8734991,127.0690902,관할기관 : 조촌동<,아동급식카드
609,반월주공마트,"전라북도 전주시 덕진구 반월3길 17 (반월동, 반월주공아파트)",35.8724281,127.0728214,관할기관 : 조촌동<,아동급식카드
610,깨순이깁밥 반월점,전라북도 전주시 덕진구 쪽구름로 121,35.8737329,127.0718704,관할기관 : 조촌동<,아동급식카드
611,뚜레쥬르 동산점,전라북도 전주시 덕진구 쪽구름로 59-1 (여의동),35.8707625,127.076506,관할기관 : 여의동<,아동급식카드
612,얌스(동산반월점),전라북도 전주시 덕진구 편운로 5 (여의동2가),35.8712679,127.0771297,관할기관 : 여의동<,아동급식카드
613,아딸 만성점,"전라북도 전주시 덕진구 만성중앙로 17-18 (만성동, 제2종근린생활시설)",35.8453205,127.0749024,관할기관 : 여의동<,아동급식카드
614,파리바게트 여의점,"전라북도 전주시 덕진구 쪽구름로 61 (여의동, 이상영가정의학과)",35.8708411,127.0764799,관할기관 : 여의동<,아동급식카드
615,하하꼬치,전라북도 전주시 덕진구 덕용4길 11 (여의동2가),35.8704615,127.0782737,관할기관 : 여의동<,아동급식카드
616,굿모닝행복애찬,전라북도 전주시 덕진구 편운로 54-11 (여의동2가),35.8733907,127.0823648,관할기관 : 여의동<,아동급식카드
617,"CU (구,훼미리마트)(전주동산점)",전라북도 덕진구 동산동,35.867938,127.085087,관할기관 : 여의동<,아동급식카드
618,파리바게트여의점,"전라북도 전주시 덕진구 쪽구름로 61 (여의동, 이상영가정의학과)",35.8708411,127.0764799,관할기관 : 여의동<,아동급식카드
619,낙원분식,전라북도 전주시 덕진구 편운로 52,35.8725922,127.0812998,관할기관 : 여의동<,아동급식카드
620,본죽&비빔밥 전주만성점,전라북도 전주시 덕진구 만성중앙로 45 (만성동),35.8431113,127.076853,관할기관 : 여의동<,아동급식카드
621,감탄 혁신점,전라북도 전주시 덕진구 안전로 197 (장동),35.8415711,127.0578516,관할기관 : 혁신동<,아동급식카드
622,피자스쿨혁신점,전라북도 전주시 덕진구 안전로 197 (장동),35.8415711,127.0578516,관할기관 : 혁신동<,아동급식카드
623,파리바게뜨(전북혁신1호점),전라북도 전주시 덕진구 오정1길 1 (중동),35.8359029,127.06044,관할기관 : 혁신동<,아동급식카드
624,모몽크,전라북도 전주시 덕진구 오공로 43-22 (중동),35.8372699,127.0612907,관할기관 : 혁신동<,아동급식카드
625,토속정육식당,전북특별자치도 부안군 계화면 간재로 466,35.7649386,126.6928721,전화번호 :063 584 0321<주된 음식 종류 :한식,모범음식점
626,명륜진사갈비 장수&(엔드)장계점,전북특별자치도 장수군 장계면 서동로 34-5,35.7306685,127.5808695,전화번호 : 063 3534000<주된 음식 종류 :생등심,모범음식점
627,태능숯불갈비,전북특별자치도 김제시 요촌북로 85 (요촌동),35.8077248,126.8934042,전화번호 : 063 5478952<주된 음식 종류 :경양식,모범음식점
628,샤브50 김제점,전북특별자치도 김제시 중앙로 100 (요촌동),35.8038308,126.886718,"<음식의 유형 :한식<주된 음식 종류 :소고기류, 갈비탕",모범음식점
629,버들 소갈비살 전문점,전북특별자치도 김제시 남북로 18 (신풍동),35.7920815,126.8988462,전화번호 : 063547 9293<주된 음식 종류 :돼지갈비,모범음식점
630,대일정,전북특별자치도 정읍시 태인면 수학정석길 3,35.6517813,126.9430048,전화번호 : 063 5344030<주된 음식 종류 :참게장백반,모범음식점
631,진양반갈비,"전북특별자치도 익산시 인북로 410, 1층 (신동)",35.9645338,126.9640152,전화번호 :063 855 9253<음식의 유형 :한식<주된 음식 종류 :돼지갈비,모범음식점
632,아리랑한우전문점,"전북특별자치도 익산시 선화로3길 16-3, 2동 2층 201호 (모현동1가)",35.9505045,126.9396639,"전화번호 :063 856 3377<음식의 유형 :한식<주된 음식 종류 :한우모듬구이, 한우갈비탕",모범음식점
633,예지원,"전북특별자치도 익산시 춘포면 미등골길 290, 1동 ((1층))",35.9553613,127.0257818,전화번호 :063 835 1155<음식의 유형 :한식<주된 음식 종류 :한정식,모범음식점
634,한우의날,전북특별자치도 익산시 서동로4길 13 (동산동),35.9315627,126.9593265,전화번호 :063 837 8877<음식의 유형 :한식<주된 음식 종류 :구이류(돼지갈비),모범음식점
635,김남규의조선옥꽃게장,"전북특별자치도 익산시 고봉로 341 (영등동,(1층))",35.9623682,126.9710344,전화번호 : 063 8411412<음식의 유형 :한식<주된 음식 종류 :장어구이,모범음식점
636,이담,"전북특별자치도 익산시 동서로 56 (모현동2가,(1층))",35.9568149,126.9412622,전화번호 :063 856 0703<주된 음식 종류 :한정식,모범음식점
637,남부갈치조림,전북특별자치도 익산시 목천로7길 45 (인화동2가),35.9288167,126.9552768,전화번호 : 063 8421989<주된 음식 종류 :아구요리,모범음식점
638,궁(갈비탕전문점),"전북특별자치도 군산시 구영5길 109, 1층 (영화동)",35.9889347,126.7103506,"전화번호 : 063 4428600<음식의 유형 :식육<주된 음식 종류 :갈비탕, 불고기전골",모범음식점
639,엘리스레스토랑,전북특별자치도 군산시 가도안1길 19 (오식도동),35.9460404,126.5588174,"전화번호 : 063 4662277<음식의 유형 :경양식<주된 음식 종류 :돈까스,스테이크,볶음밥,아귀암뽕찜",모범음식점
640,신포우리만두군산점,전북특별자치도 군산시 동령길 5 (장미동),35.9864141,126.7138466,"전화번호 : 063 4450389<음식의 유형 :한식<주된 음식 종류 :돈가스,낙지덮밥,쫄면,만두",모범음식점
641,군산복집,"전북특별자치도 군산시 구영7길 15 (1,2)층 (월명동)",35.9847369,126.7088081,"전화번호 : 063 4460118<음식의 유형 :생선회(일식)<주된 음식 종류 :생선회,생선찜,생선탕",모범음식점
642,양가네감자탕,전북특별자치도 전주시 덕진구 편운로 22-1 (동산동),35.8714344,127.0788801,<,모범음식점
643,현대옥진북점,"전북특별자치도 전주시 덕진구 벚꽃로 12 (진북동, 외1필지)",35.828398,127.1310053,전화번호 :063 272 0037<,모범음식점
644,아중장어,전북특별자치도 전주시 덕진구 인교9길 53 (우아동1가),35.8273162,127.1758104,전화번호 :063 244 5392<,모범음식점
645,도가옥,전북특별자치도 전주시 덕진구 호반3길 8-4 (덕진동2가),35.8491262,127.1172217,전화번호 :063 275 9859<,모범음식점
646,백리향,전북특별자치도 전주시 덕진구 백제대로 549 (금암동),35.8404924,127.1297893,전화번호 : 063 2748801<,모범음식점
647,청양농장,전북특별자치도 전주시 덕진구 명륜5길 16-2 (덕진동1가),35.8438448,127.1258794,"전화번호 : 063 2549282<주된 음식 종류 :소,돼지 숯불구이",모범음식점
648,온스시,전북특별자치도 전주시 완산구 꽃밭정1길 2 (평화동1가),35.7965216,127.1339994,전화번호 : 063 2249245<주된 음식 종류 :한식,모범음식점
649,지리산운봉흙돼지,전북특별자치도 전주시 완산구 서곡1길 13-2 (효자동3가),35.8352719,127.0995896,전화번호 : 063 2735588<주된 음식 종류 :삼겹살,모범음식점
650,무지개가든 안행점,전북특별자치도 전주시 완산구 안행로 53 (효자동1가),35.8017908,127.1335284,전화번호 :063 229 8859<주된 음식 종류 :백반,모범음식점
651,행원,전북특별자치도 전주시 완산구 풍남문3길 12 (전동),35.8143328,127.1475517,전화번호 :063 284 6566<주된 음식 종류 :한정식,모범음식점
652,오일내 중화산점,전북특별자치도 전주시 완산구 신촌4길 18-4 (중화산동2가),35.8181099,127.1163457,전화번호 :063 222 5807<주된 음식 종류 :일식,모범음식점
653,남원본가추어탕(시청점),전북특별자치도 전주시 완산구 노송광장로 41 (서노송동),35.8247537,127.1465001,전화번호 : 063 2866001<주된 음식 종류 :설렁탕,모범음식점
654,만족,전북특별자치도 전주시 완산구 안터6길 41 (서신동),35.8300385,127.1164568,전화번호 : 063 2545082<주된 음식 종류 :영양돌솥밥,모범음식점
655,락준정신,전북특별자치도 전주시 완산구 신봉1길 15 (효자동1가),35.8106423,127.1166271,전화번호 : 063 2240927<주된 음식 종류 :칼국수,모범음식점
656,서곡원조칡냉면,전북특별자치도 전주시 완산구 서곡1길 9-8 (효자동3가),35.8346622,127.099591,전화번호 : 063 2783178<주된 음식 종류 :한식,모범음식점
657,개마고원,전북특별자치도 전주시 완산구 고사평로 12 (서신동),35.8349773,127.1096527,전화번호 :063  2765680<주된 음식 종류 :탕,모범음식점
658,장판집,"전북특별자치도 전주시 완산구 온고을로 119-4, 2동 1층 6호 (서신동, 광진@상가2동)",35.8332683,127.1092949,전화번호 : 063 2531195<주된 음식 종류 :한식,모범음식점
659,옛촌,전북특별자치도 전주시 완산구 중산로 6 (중화산동2가),35.8145631,127.12059,전화번호 : 063 2273113<주된 음식 종류 :구이류,모범음식점
660,원조한울바지락죽,전북특별자치도 전주시 완산구 영경2길 14 (중화산동2가),35.8177968,127.1241347,전화번호 : 063 2255166<주된 음식 종류 :바지락죽,모범음식점
661,강진 고향산천 다슬기 전문점,전북특별자치도 전주시 완산구 메너머3길 13-8 (중화산동2가),35.8231391,127.1210525,전화번호 : 063 2277799<주된 음식 종류 :추어탕.숙회전문,모범음식점
662,향리,전북특별자치도 전주시 완산구 전주객사5길 83 (고사동),35.8217685,127.1443683,전화번호 : 063 2726320<주된 음식 종류 :한식,모범음식점
663,광한루추어탕,전북특별자치도 전주시 완산구 중화산로 31 (중화산동2가),35.8132585,127.1179577,전화번호 : 063 2277879<주된 음식 종류 :추어탕,모범음식점
664,인생역전갈매기,전북특별자치도 전주시 완산구 용리로 66 (삼천동1가),35.7984553,127.1173012,전화번호 : 063 2283883<주된 음식 종류 :한식,모범음식점
665,동창갈비,전북특별자치도 전주시 완산구 전주객사4길 51-1 (고사동),35.8199136,127.143164,전화번호 : 063 2872911<주된 음식 종류 :구이류,모범음식점
666,한국식당,전북특별자치도 전주시 완산구 전라감영로 48-1 (중앙동4가),35.8154268,127.1445026,전화번호 : 063 2846932<주된 음식 종류 :한식,모범음식점
667,중앙회관,전북 순창군 순창읍 순창로 205-1,35.3735208,127.1422441,제공혜택 : 한식에 대하여 5%할인<연락처 : 063-653-0880,아이조아카드
668,양키친,익산시 선화로1길 109-12,35.9560056,126.9393788,제공혜택 : 음료수2캔무료<연락처 : 063-837-9222,아이조아카드
669,쭈불로드,익산시 무왕로17길 44-14,35.9631768,126.9804568,제공혜택 : 카드제시시 고르존골라피자 또는 음료제공<연락처 : 063-832-6389,아이조아카드
706,전주시골밥상,전북 완주군 운주면 산북리611-62,36.1169447,127.3319369,제공혜택 :  5%할인<연락처 : 263-3687,아이조아카드
707,아이랑식당,전북 완주군 운주면 산북리611-63,36.1168418,127.3317822,제공혜택 :  5%할인<연락처 : 263-9120,아이조아카드
708,태평전주식당,전북 완주군 운주면 산북리611-48,36.1173854,127.332574,제공혜택 :  5%할인<연락처 : 263-3871,아이조아카드
709,토박이전주식당,전북 완주군 운주면 산북리611-58,36.1170255,127.3320613,제공혜택 :  5%할인<연락처 : 263-6277,아이조아카드
710,고궁전주식당,전북 완주군 운주면 산북리611-48,36.1173854,127.332574,제공혜택 :  5%할인<연락처 : 263-4720,아이조아카드
711,전주중앙식당,전북 완주군 운주면 산북리611-48,36.1173854,127.332574,제공혜택 :  5%할인<연락처 : 263-0226,아이조아카드
712,백제전주식당,전북 완주군 운주면 산북리610-12,36.1178312,127.3332605,제공혜택 :  20%할인<연락처 : 263-9568,아이조아카드
713,전주고향식당,전북 완주군 운주면 산북리611-64,36.1167393,127.3316256,제공혜택 :  5%할인<연락처 : 263-9151,아이조아카드
714,대전식당,전북 완주군 운주면 산북리610-12,36.1178312,127.3332605,제공혜택 :  5%할인<연락처 : 263-3188,아이조아카드
715,민속전주식당,전북 완주군 운주면 산북리610-13,36.1179272,127.3334178,제공혜택 :  5%할인<연락처 : 263-2829,아이조아카드
716,대둔산식당,전북 완주군 운주면 산북리610-11,36.1177512,127.333138,제공혜택 :  10%할인<연락처 : 263-1726,아이조아카드
717,바움,전북 남원시 용성로 219,35.4170812,127.3959572,제공혜택 : - 전품목 2%할인<연락처 : 626-8208,아이조아카드
718,녹원,전북 순창군 순창읍 순창5길 28,35.3738416,127.1397271,제공혜택 : - 5%할인(한정식에 한함)<연락처 : 063-653-7723,아이조아카드
719,장가계,전북 순창군 순창읍 장류로 331,35.3770582,127.1386561,제공혜택 : - 전품목 3% 할인<연락처 : 063-653-7723,아이조아카드
720,엄마방,전북 순창군 순창 6길 5-2,35.3730106,127.142942,"제공혜택 : - 화장품, 그릇 10만원 이상 구매시 5% 할인<연락처 : 063-653-0569",아이조아카드
721,가구나라,전북 순창군 순창읍 장류로 321,35.3772024,127.1373913,제공혜택 : - 전품목 10% 할인<연락처 : 063-653-5021,아이조아카드
722,콩마을,전북 군산시 내흥동 145-9,35.998903,126.7646248,제공혜택 :  5% 할인<연락처 : 453-4848,아이조아카드
723,본가,전북 군산시 조촌동866-13,35.9692336,126.7363694,제공혜택 :  자체포인트적립 (상품 금액의 5%)<연락처 : 452-3686,아이조아카드
724,영국빵집,전북 군산시 신풍동 1001-11,35.9786271,126.7049301,제공혜택 :  상품금액의 5%할인<연락처 : 466-3477,아이조아카드
725,웃는돼갈비,전북 부안군 부안읍 용암로 35,35.7244637,126.7423146,제공혜택 : 5% 할인<연락처 : 063-581-6644,아이조아카드
726,산지식당,전북 부안군 행안면 아제순제길87,35.7195948,126.7253788,제공혜택 : 5% 할인<연락처 : 063-584-4512,아이조아카드
727,추억담카페,익산시 황동면 황동5길 13,36.001039,126.9461385,제공혜택 : 음료 10%할인<연락처 : 050713186824,아이조아카드
728,검은깨 시장 통닭,익산시 고현로 89,35.9450557,126.942964,제공혜택 : 카드 소지시 음료수(소) 1병 제공<연락처 : 0638517532,아이조아카드
729,쿡커피컴퍼니,익산시 동천로41 1층,35.9294958,126.9677866,제공혜택 : 10% 할인<연락처 : 07075837717,아이조아카드
730,미우(스몰브런치카페),익산시 인북로 89,35.9371606,126.9523171,제공혜택 : 10% 할인<연락처 : 063-856-8904,아이조아카드
731,천하대만족,익산시 동천로 7길 76,35.9351145,126.9667543,"제공혜택 : 족발,보쌈 주문시 막국수 써비스<연락처 : 0638542929",아이조아카드
732,수라청,전북 부안군 부안읍 오리정로 104,35.7230514,126.73356,"제공혜택 : 5% 할인(현장할인), 전품목<연락처 : 063-583-5392",아이조아카드
733,썬더치킨,전북 부안군 부안읍 부풍로 122,35.7210388,126.7301796,제공혜택 : 10%할인(현장할인) 전품목<연락처 : 063-583-9293,아이조아카드
734,써니네밥,전북 부안군 부안읍 봉신길 13,35.7199343,126.7340575,"제공혜택 : 10%할인(현장할인), 1만5천원 이상 결제 시<연락처 : 063-582-0136",아이조아카드
735,해비치,전북 부안군 부안읍 봉동길 10,35.7204224,126.7349176,제공혜택 : 3만원 이상 결제시 5% 할인<연락처 : 063-584-1530,아이조아카드
736,베어브라더스,전북 부안군 부안읍 부풍로 67 1층,35.7251725,126.7321018,제공혜택 : 1만원 이상 결제시 5% 할인<연락처 : 010-2593-9040,아이조아카드
737,월랑회관,전북 진안군 진안읍 중앙로 89,35.7926749,127.4268752,제공혜택 : 전품목 5% 할인<연락처 : 063-433-2677,아이조아카드
738,구내식당,전북 진안군 진안읍 중앙로 64,35.790891,127.4250049,제공혜택 : 전품목 5% 할인<연락처 : 063-433-3153,아이조아카드
739,마라나타,익산시 인북로 206-3,35.9469803,126.9566918,제공혜택 : 10%할인<연락처 : 1030540177,아이조아카드
740,코코밀,익산시 오산면 장신리 218,35.9535438,126.9280306,제공혜택 : 할인 10%<연락처 : 638538788,아이조아카드
741,빵곰언니와 호두파이공장,익산시 고봉로24길 25,35.9548863,126.9712786,제공혜택 : 1만원이상 결제시 마들렌 1봉 증정<연락처 : 7075216940,아이조아카드
742,55닭갈비,익산시 배산로3길 50,35.9463077,126.9361311,제공혜택 : 2인이상 주문시 음료수1제공<연락처 : 638565005,아이조아카드
